address_line_1,address_line_2,city,fax,friday_close,friday_open,has_beer_cold_room,has_bilingual_services,has_parking,has_product_consultant,has_special_occasion_permits,has_tasting_bar,has_transit_access,has_vintages_corner,has_wheelchair_accessability,id,inventory_count,inventory_price,inventory_volume_in_milliliters,is_dead,lat,long,monday_close,monday_open,name,postal_code,products_count,saturday_close,saturday_open,store_no,sunday_close,sunday_open,tags,telephone,thursday_close,thursday_open,tuesday_close,tuesday_open,wednesday_close,wednesday_open
2625D Weston Road,,North York,(416) 243-0148,1380.0,540.0,False,True,True,True,True,False,True,True,True,1,89828,184991096,72717896,False,43.7127,-79.531,1380.0,540.0,Hwy 401 & Weston,M9N3W2,4267,1380.0,540.0,1,1080.0,660.0,hwy 401 weston 2625d road toronto north toronto-north torontonorth york m9n3w2,(416) 243-3320,1380.0,540.0,1380.0,540.0,1380.0,540.0
396 St. Clair Ave. West,,Toronto,(416) 653-7113,1320.0,600.0,False,True,True,False,False,False,True,False,True,2,20183,20297515,13039419,False,43.684,-79.4154,1320.0,600.0,St Clair & Bathurst,M5P3N3,608,1320.0,600.0,2,1080.0,660.0,st clair bathurst 396 ave west toronto central toronto-central torontocentral m5p3n3,(416) 653-0220,1320.0,600.0,1320.0,600.0,1320.0,600.0
1230 Dundas Street West,,Toronto,(416) 536-9493,1260.0,600.0,False,True,True,False,False,False,True,True,True,3,63081,86616481,45831159,False,43.6496,-79.4235,1260.0,600.0,Dundas & Dovercourt,M6J1X5,1783,1260.0,570.0,3,1080.0,660.0,dundas dovercourt 1230 street west toronto central toronto-central torontocentral m6j1x5,(416) 536-4634,1260.0,600.0,1260.0,600.0,1260.0,600.0
200 Danforth Avenue,,Toronto,(416) 469-0081,1320.0,570.0,True,True,False,True,False,False,True,True,True,4,50451,98752175,37809833,False,43.6769,-79.3561,1260.0,570.0,Danforth & Broadview,M4K1N5,2934,1320.0,570.0,4,1080.0,660.0,danforth broadview 200 avenue toronto central toronto-central torontocentral m4k1n5,(416) 469-4724,1320.0,570.0,1320.0,570.0,1320.0,570.0
1654 Queen Street East,,Toronto,(416) 686-6896,1320.0,600.0,False,True,True,True,False,False,True,True,True,5,61159,88611427,44793445,False,43.6669,-79.315,1320.0,600.0,Queen & Coxwell,M4L1G3,2794,1320.0,570.0,5,1080.0,660.0,queen coxwell 1654 street east toronto central toronto-central torontocentral m4l1g3,(416) 691-9758,1320.0,600.0,1320.0,600.0,1320.0,600.0
1357 Queen St. W.,,Toronto,(416) 532-5064,1320.0,600.0,True,True,True,False,True,False,True,False,True,6,50944,70243335,38545969,False,43.6421,-79.4324,1260.0,600.0,Queen & Lansdowne,M6K1M1,2224,1320.0,600.0,6,1080.0,660.0,queen lansdowne 1357 st w toronto central toronto-central torontocentral m6k1m1,(416) 532-7283,1320.0,600.0,1260.0,600.0,1260.0,600.0
101 Eglinton Avenue East,Yonge and Eglinton,Toronto,(416) 482-1808,1260.0,600.0,False,True,False,True,False,False,True,True,True,7,33540,53797850,25399823,False,43.7074,-79.3948,1260.0,600.0,Eglinton & Dunfield,M4P1H4,1688,1260.0,600.0,7,1080.0,660.0,eglinton dunfield 101 avenue east yonge and toronto central toronto-central torontocentral m4p1h4,(416) 482-1800,1260.0,600.0,1260.0,600.0,1260.0,600.0
908 St. Clair Avenue West,,Toronto,(416) 654-8040,1260.0,600.0,False,True,False,False,False,False,True,False,True,8,36499,40832223,27686238,False,43.6802,-79.4339,1260.0,600.0,St Clair & Oakwood,M6C1C6,1187,1260.0,600.0,8,1080.0,660.0,st clair oakwood 908 avenue west toronto central toronto-central torontocentral m6c1c6,(416) 654-4240,1260.0,600.0,1260.0,600.0,1260.0,600.0
879 Bloor Street West,,Toronto,(416) 536-8659,1260.0,600.0,False,True,False,False,False,False,True,True,True,9,36771,35558965,23868611,False,43.6619,-79.4251,1260.0,600.0,Bloor & Ossington,M6G1M4,936,1260.0,600.0,9,1080.0,660.0,bloor ossington 879 street west toronto central toronto-central torontocentral m6g1m4,(416) 536-4340,1260.0,600.0,1260.0,600.0,1260.0,600.0
10 Scrivener Square,Summerhill Subway,Toronto,(416) 922-3104,1320.0,570.0,False,True,True,True,True,False,True,True,True,10,147542,404857290,103215136,False,43.6809,-79.3905,1260.0,570.0,Yonge & Summerhill,M4W3Y9,4522,1320.0,540.0,10,1080.0,660.0,yonge summerhill 10 scrivener square subway toronto central toronto-central torontocentral m4w3y9,(416) 922-0403,1320.0,570.0,1320.0,570.0,1320.0,570.0
932 Gerrard Street East,,Toronto,(416) 466-7518,1260.0,600.0,False,True,True,False,False,False,True,False,False,11,30699,38933991,22788238,False,43.6682,-79.3411,1260.0,600.0,Gerrard & Pape,M4M1Z2,1367,1260.0,600.0,11,1080.0,660.0,gerrard pape 932 street east toronto central toronto-central torontocentral m4m1z2,(416) 466-1209,1260.0,600.0,1260.0,600.0,1260.0,600.0
512 Parliament Street a,,Toronto,(416) 923-5940,1260.0,600.0,False,True,True,False,False,False,True,False,True,12,30296,44969161,22501383,False,43.6655,-79.3687,1260.0,600.0,Parliament and Wellesly,M4X1P4,1262,1260.0,600.0,12,1080.0,660.0,parliament and wellesly 512 street a toronto central toronto-central torontocentral m4x1p4,(416) 923-6966,1260.0,600.0,1260.0,600.0,1260.0,600.0
1145 Danforth Avenue,,Toronto,(416) 466-7243,1320.0,600.0,False,True,True,False,True,True,True,False,True,13,32820,54374993,27019575,False,43.681,-79.3333,1260.0,600.0,Danforth & Greenwood,M4J1M5,1544,1320.0,600.0,13,1080.0,660.0,danforth greenwood 1145 avenue toronto central toronto-central torontocentral m4j1m5,(416) 466-9958,1320.0,600.0,1260.0,600.0,1260.0,600.0
337 Spadina Avenue,,Toronto,(416) 597-3851,1320.0,600.0,False,True,True,False,False,True,True,True,True,14,45715,59627003,33165095,False,43.6548,-79.3985,1320.0,600.0,Spadina & Dundas,M5T2E9,1711,1320.0,600.0,14,1080.0,660.0,spadina dundas 337 avenue toronto central toronto-central torontocentral m5t2e9,(416) 597-0145,1320.0,600.0,1320.0,600.0,1320.0,600.0
232 Dupont Street,,Toronto,(416) 922-8440,1320.0,600.0,False,True,True,True,True,False,True,True,True,15,55359,115266564,40018673,False,43.6753,-79.4057,1320.0,600.0,Dupont & Spadina,M5R1V7,2611,1320.0,600.0,15,1080.0,660.0,dupont spadina 232 street toronto central toronto-central torontocentral m5r1v7,(416) 922-7066,1320.0,600.0,1320.0,600.0,1320.0,600.0
5095 Yonge Street A4,,North York,(416) 226-2890,1320.0,600.0,False,True,False,False,False,False,True,True,True,16,26236,33312777,19101013,False,43.7688,-79.4125,1320.0,600.0,Yonge & Empress,M2N6Z4,1061,1320.0,600.0,16,1080.0,660.0,yonge empress 5095 street a4 toronto north toronto-north torontonorth york m2n6z4,(416) 226-3949,1320.0,600.0,1320.0,600.0,1320.0,600.0
222 Front Street East,,Toronto,(416) 214-9291,1320.0,600.0,False,True,False,True,False,False,True,True,True,17,56257,92183141,40855462,False,43.6512,-79.3649,1320.0,600.0,Front & Sherbourne,M5A1E7,2617,1320.0,600.0,17,1080.0,660.0,front sherbourne 222 street east toronto central toronto-central torontocentral m5a1e7,(416) 214-0311,1320.0,600.0,1320.0,600.0,1320.0,600.0
"85 Hanna Avenue, Unit 103",,Toronto,(416) 538-9500,1320.0,570.0,False,True,True,True,False,False,True,True,True,18,51233,81282659,37833599,False,43.6399,-79.4199,1260.0,570.0,King & Dufferin,M6K3S3,2306,1320.0,570.0,18,1080.0,660.0,king dufferin 85 hanna avenue unit 103 toronto central toronto-central torontocentral m6k3s3,(416) 538-9200,1320.0,570.0,1320.0,570.0,1320.0,570.0
2151 St. Clair Ave. W.,,Toronto,(416) 653-8850,1260.0,600.0,True,True,True,True,False,False,True,True,True,19,59379,102534983,46185428,False,43.6705,-79.4729,1260.0,600.0,St Clair & Keele,M5N1K5,2934,1260.0,600.0,19,1080.0,660.0,st clair keele 2151 ave w toronto central toronto-central torontocentral m5n1k5,(416) 653-8202,1260.0,600.0,1260.0,600.0,1260.0,600.0
2762 Lake Shore Boulevard West,,Etobicoke,(416) 251-4236,1260.0,600.0,False,True,True,False,True,True,True,False,True,20,45341,52445270,34800598,False,43.6023,-79.4993,1260.0,600.0,Lake Shore & Islington,M8V1H1,1820,1260.0,600.0,20,1080.0,660.0,lake shore islington 2762 boulevard west toronto etobicoke toronto-etobicoke torontoetobicoke m8v1h1,(416) 251-2021,1260.0,600.0,1260.0,600.0,1260.0,600.0
737 Golf Links Road,Meadowlands Centre,Ancaster,(905) 304-9611,1320.0,600.0,False,False,True,True,True,False,True,True,True,21,56582,102603709,47593152,False,43.2262,-79.955,1320.0,600.0,Golf Links & Hwy 403,L9K1L5,2934,1320.0,600.0,21,1080.0,660.0,golf links hwy 403 737 road meadowlands centre ancaster l9k1l5,(905) 304-9608,1320.0,600.0,1320.0,600.0,1320.0,600.0
461 Big Bay Point Road,,Barrie,(705) 739-8507,1260.0,600.0,False,False,True,True,True,False,True,True,True,22,62220,95149920,51887633,False,44.356,-79.6508,1260.0,600.0,Big Bay Point Rd & Yonge,L4N3Z3,3010,1260.0,600.0,22,1080.0,660.0,big bay point rd yonge 461 road barrie l4n3z3,(705) 739-0162,1260.0,600.0,1260.0,600.0,1260.0,600.0
1149 Barton Street East,Centre Mall,Hamilton,(905) 544-3555,1320.0,570.0,True,True,True,True,True,True,True,True,True,23,62735,87093250,48088422,False,43.2518,-79.8133,1320.0,570.0,Barton & Kenilworth,L8H2V2,2758,1320.0,570.0,23,1080.0,660.0,barton kenilworth 1149 street east centre mall hamilton l8h2v2,(905) 544-8010,1320.0,570.0,1320.0,570.0,1320.0,570.0
144 Clarence Street,,Port Colborne,(905) 834-3399,1200.0,600.0,False,True,True,False,True,False,False,False,False,24,17120,26248712,15924620,False,42.886,-79.2551,1080.0,600.0,Clarence & Elm Street,L3K3G5,1083,1080.0,600.0,24,1080.0,660.0,clarence elm street 144 port colborne l3k3g5,(905) 834-4643,1080.0,600.0,1080.0,600.0,1080.0,600.0
119 Osler Drive,Unit 13A,Dundas,(905) 628-4040,1320.0,570.0,False,False,True,True,True,True,True,True,True,25,58157,90390367,46610127,False,43.2579,-79.9412,1320.0,570.0,Osler and Main West,L9H6X4,2956,1320.0,570.0,25,1080.0,660.0,osler and main west 119 drive unit 13a dundas l9h6x4,(905) 628-2042,1320.0,570.0,1320.0,570.0,1320.0,570.0
71 York Street,,London,(519) 432-3768,1260.0,600.0,False,True,True,True,True,True,True,True,True,26,59163,90600508,45783090,False,42.9802,-81.2518,1080.0,600.0,York & Ridout,N6A1A6,2529,1080.0,600.0,26,1080.0,660.0,york ridout 71 street london n6a1a6,(519) 432-1831,1080.0,600.0,1080.0,600.0,1080.0,600.0
900 Oxford Street East,Bellwood Plaza,London,(519) 451-8093,1260.0,600.0,False,True,True,False,True,True,True,True,True,27,40630,55373345,34266213,False,43.0035,-81.2271,1260.0,600.0,Oxford Street East & Gammage Street,N5Y5A1,1940,1260.0,600.0,27,1080.0,660.0,oxford street east gammage 900 bellwood plaza london n5y5a1,(519) 451-7143,1260.0,600.0,1260.0,600.0,1260.0,600.0
222 Broad Street East,,Dunnville,(905) 774-3123,1260.0,600.0,False,False,True,False,True,True,True,False,True,28,15868,23321647,14501149,False,42.9035,-79.6152,1080.0,600.0,Broad & Maple Street,N1A1G2,961,1080.0,600.0,28,1080.0,660.0,broad maple street 222 east dunnville n1a1g2,(905) 774-5312,1080.0,600.0,1080.0,600.0,1080.0,600.0
415 William Street,Box 190,Wiarton,(519) 534-3274,1260.0,600.0,False,False,True,False,True,True,False,False,True,29,15458,23061151,13368112,False,44.7435,-81.1386,1080.0,600.0,William & Claude,N0H2T0,1090,1080.0,600.0,29,1080.0,660.0,william claude 415 street box 190 wiarton n0h2t0,(519) 534-1170,1080.0,600.0,1080.0,600.0,1080.0,600.0
3 Victoria Street North,P.O. Box 307,Walkerton,(519) 881-1588,1260.0,600.0,False,False,True,False,True,False,False,False,True,30,9215,14036911,7168061,False,44.1338,-81.1472,1080.0,600.0,Victoria & Durham Street,N0G2V0,774,1080.0,600.0,30,1080.0,660.0,victoria durham street 3 north po box 307 walkerton n0g2v0,(519) 881-1362,1080.0,600.0,1080.0,600.0,1080.0,600.0
1 First Street,,Collingwood,(705) 445-9945,1320.0,600.0,True,False,True,True,True,True,False,True,True,31,82120,143571261,63613096,False,44.5028,-80.2182,1260.0,600.0,First & Pine,L9Y1A1,3385,1320.0,600.0,31,1080.0,660.0,first pine 1 street collingwood l9y1a1,(705) 445-3341,1260.0,600.0,1260.0,600.0,1260.0,600.0
400 University Avenue West,,Windsor,(519) 253-2029,1320.0,600.0,False,True,True,False,True,False,True,False,True,32,34190,48155432,26070303,False,42.3166,-83.0434,1320.0,600.0,University & Church,N9A5P8,1525,1320.0,600.0,32,1080.0,660.0,university church 400 avenue west windsor n9a5p8,(519) 253-2221,1320.0,600.0,1320.0,600.0,1320.0,600.0
7481 Oakwood Drive,,Niagara Falls,(905) 354-7509,1260.0,600.0,True,False,True,False,True,True,False,True,True,33,42468,65719147,36779777,False,43.066,-79.1211,1260.0,600.0,Mcleod & Qew,L2E6S5,2135,1260.0,600.0,33,1080.0,660.0,mcleod qew 7481 oakwood drive niagara falls l2e6s5,(905) 354-7621,1260.0,600.0,1260.0,600.0,1260.0,600.0
1320 Walker Road,,Windsor,(519) 254-1291,1260.0,600.0,False,True,True,False,True,True,True,False,True,34,37796,54800767,30459718,False,42.3136,-83.0012,1260.0,600.0,Walker & Ottawa,N8Y4T9,1905,1260.0,600.0,34,1080.0,660.0,walker ottawa 1320 road windsor n8y4t9,(519) 254-1543,1260.0,600.0,1260.0,600.0,1260.0,600.0
879 Lansdowne Street West,,Peterborough,(705) 743-9936,1320.0,570.0,False,False,True,True,True,True,True,True,True,35,54038,88112877,42605516,False,44.2823,-78.3395,1320.0,570.0,Lansdowne West & Parkway,K9J1Z5,2691,1320.0,570.0,35,1080.0,660.0,lansdowne west parkway 879 street peterborough k9j1z5,(705) 743-9955,1320.0,570.0,1320.0,570.0,1320.0,570.0
457 Hazeldean Rd.,Unit 10,Kanata,(613) 836-7544,1320.0,570.0,False,True,True,True,True,True,True,True,True,36,70813,101651674,56220239,False,45.3002,-75.8874,1320.0,570.0,Hazeldean & Castlefrank,K2L1V1,2864,1320.0,570.0,36,1080.0,660.0,hazeldean castlefrank 457 rd unit 10 ottawa kanata ottawa-kanata ottawakanata k2l1v1,(613) 592-5416,1320.0,570.0,1320.0,570.0,1320.0,570.0
640 Bank Street,,Ottawa,(613) 234-8481,1260.0,600.0,False,True,True,False,True,True,True,True,True,37,0,0,0,True,45.4063,-75.6905,1260.0,600.0,Bank & Queensway,K1S3Z8,0,1260.0,600.0,37,1020.0,720.0,bank queensway 640 street ottawa k1s3z8,(613) 234-7064,1260.0,600.0,1260.0,600.0,1260.0,600.0
275 Rideau Street,Corner of King Edward and Rideau St,Ottawa,(613) 241-7453,1320.0,570.0,False,True,True,True,True,True,True,True,True,38,116645,290359875,90652760,False,45.4288,-75.6863,1320.0,570.0,Rideau & King Edward,K1N5Y3,4434,1320.0,570.0,38,1080.0,660.0,rideau king edward 275 street corner of and st ottawa k1n5y3,(613) 789-5226,1320.0,570.0,1320.0,570.0,1320.0,570.0
63 Albert Street,,Cobourg,(905) 372-1665,1200.0,570.0,False,False,True,False,False,True,True,False,True,39,20973,29268383,17119855,False,43.9585,-78.1677,1080.0,570.0,3Rd & Albert Street,K9A2P8,1193,1080.0,570.0,39,1080.0,660.0,3rd albert street 63 cobourg k9a2p8,(905) 372-7932,1080.0,570.0,1080.0,570.0,1080.0,570.0
34 Barrack Street,,Kingston,(613) 549-1153,1320.0,570.0,False,True,True,True,True,True,True,True,True,40,73269,119434157,57728758,False,44.233,-76.4807,1320.0,570.0,Barrack & King,K7K7A9,3185,1320.0,570.0,40,1080.0,660.0,barrack king 34 street kingston k7k7a9,(613) 549-5092,1320.0,570.0,1320.0,570.0,1320.0,570.0
665 Industrial Avenue,The Trainyards,Ottawa,(613) 738-7880,1260.0,570.0,True,True,True,False,False,True,True,True,True,41,43371,74737617,35544702,False,45.4113,-75.6415,1260.0,570.0,Industrial & St Laurent,K1G0Z1,2286,1260.0,570.0,41,1080.0,660.0,industrial st laurent 665 avenue the trainyards ottawa k1g0z1,(613) 738-0937,1260.0,570.0,1260.0,570.0,1260.0,570.0
179 King Street West,,Brockville,(613) 342-9063,1260.0,570.0,False,False,True,False,True,False,True,False,True,42,11859,16498193,9849994,False,44.5876,-75.6878,1080.0,570.0,King & John Street,K6V3R6,850,1080.0,570.0,42,1080.0,660.0,king john street 179 west brockville k6v3r6,(613) 342-2202,1080.0,570.0,1080.0,570.0,1080.0,570.0
6-607 King Street West,King's Crossing Plaza,Kitchener,(519) 743-0088,1080.0,600.0,False,False,True,False,True,False,True,False,True,43,25373,33040023,18883860,False,43.4534,-80.5013,1080.0,600.0,King & Wellington,N2G1C7,1331,1080.0,600.0,43,,,king wellington 6 607 6-607 6607 street west king's kings crossing plaza kitchener n2g1c7,(519) 743-7551,1080.0,600.0,1080.0,600.0,1080.0,600.0
50 Market Street South,,Brantford,(519) 753-3519,1320.0,570.0,False,False,True,True,True,True,True,True,True,44,57123,83404822,48170832,False,43.1355,-80.2617,1320.0,570.0,Market South & Icomm,N3S2E3,2633,1320.0,570.0,44,1080.0,660.0,market south icomm 50 street brantford n3s2e3,(519) 753-0541,1320.0,570.0,1320.0,570.0,1320.0,570.0
196 Sherbrooke Street,,Peterborough,(705) 745-4749,1260.0,570.0,False,False,True,False,True,True,True,True,True,45,40162,54347675,32292314,False,44.301,-78.3213,1200.0,570.0,Sherbrooke & George,K9J2N3,1477,1260.0,570.0,45,1080.0,660.0,sherbrooke george 196 street peterborough k9j2n3,(705) 745-1333,1260.0,570.0,1200.0,570.0,1200.0,570.0
250 North Christina Street,,Sarnia,(519) 337-2631,1080.0,600.0,False,False,False,False,True,False,True,False,False,46,17274,20825920,13836209,False,42.9754,-82.4057,1080.0,600.0,Christina & George Street,N7T7V3,885,1080.0,600.0,46,1080.0,660.0,christina george street 250 north sarnia n7t7v3,(519) 337-2631,1080.0,600.0,1080.0,600.0,1080.0,600.0
189 King Street East,,St. Catharines,(905) 682-7886,1260.0,600.0,False,False,True,False,True,False,True,False,False,47,31323,39522633,23554604,False,43.1616,-79.2436,1260.0,600.0,King & Academy,L2R3J5,1482,1260.0,600.0,47,1080.0,660.0,king academy 189 street east st catharines l2r3j5,(905) 682-5801,1260.0,600.0,1260.0,600.0,1260.0,600.0
4694 Victoria Avenue,,Niagara Falls,(905) 358-7771,1200.0,600.0,False,False,True,False,True,False,True,False,True,48,24934,36024688,19704055,False,43.1062,-79.0731,1080.0,600.0,Victoria & Valley Way,L2E4B9,1201,1200.0,600.0,48,1080.0,660.0,victoria valley way 4694 avenue niagara falls l2e4b9,(905) 358-8532,1200.0,600.0,1080.0,600.0,1080.0,600.0
1315-B Second Street,,Cornwall,(613) 932-0178,1260.0,570.0,True,True,True,False,True,True,True,True,True,49,30817,43383493,24444692,False,45.025,-74.705,1200.0,570.0,Second St and Glengarry Blvd,K6H7C4,1645,1260.0,570.0,49,1080.0,660.0,second st and glengarry blvd 1315 b 1315-b 1315b street cornwall k6h7c4,(613) 932-1950,1260.0,570.0,1200.0,570.0,1200.0,570.0
190 Cedar Street,,Sudbury,(705) 673-2316,1260.0,600.0,False,True,True,False,True,True,True,False,True,50,24379,30921131,18816768,False,46.4926,-80.9908,1080.0,600.0,Elm & Paris Street,P3E1B4,1496,1080.0,600.0,50,1080.0,660.0,elm paris street 190 cedar sudbury downtown sudbury-downtown sudburydowntown p3e1b4,(705) 675-5391,1260.0,600.0,1080.0,600.0,1080.0,600.0
16 Wellington St West -Building B,,Guelph,(519) 822-7524,1260.0,600.0,True,False,True,True,False,True,True,True,True,51,45166,65975969,34491709,False,43.5461,-80.2482,1260.0,600.0,Wellington & Gordon,N1H3R9,2449,1260.0,600.0,51,1080.0,660.0,wellington gordon 16 st west  building -building b guelph n1h3r9,(519) 822-4831,1260.0,600.0,1260.0,600.0,1260.0,600.0
815 Ontario Road,Rose City Plaza,Welland,(905) 734-1419,1200.0,600.0,False,True,True,False,True,False,True,False,False,52,21390,27847090,18689807,False,42.9761,-79.2397,1080.0,600.0,Ontario & Southworth,L3B5V6,1137,1080.0,600.0,52,1080.0,660.0,ontario southworth 815 road rose city plaza welland l3b5v6,(905) 734-3132,1080.0,600.0,1080.0,600.0,1080.0,600.0
52 Queen Street,Unit 6,Cookstown,(705) 458-0613,1200.0,600.0,False,False,True,False,False,False,False,False,True,53,15027,18149754,12066662,False,44.189,-79.7089,1200.0,600.0,Queen & King,L0L1L0,880,1080.0,600.0,53,1080.0,660.0,queen king 52 street unit 6 cookstown l0l1l0,(705) 458-0692,1200.0,600.0,1200.0,600.0,1200.0,600.0
186 Worthington Street West,,North Bay,(705) 494-4522,1080.0,600.0,False,True,True,False,True,False,True,False,True,54,21900,28250127,18343588,False,46.3129,-79.4629,1080.0,600.0,Worthington & Fraser Street,P1B3B2,1182,1080.0,600.0,54,1080.0,660.0,worthington fraser street 186 west north bay p1b3b2,(705) 494-4065,1080.0,600.0,1080.0,600.0,1080.0,600.0
1050 Pembroke Street East,,Pembroke,(613) 732-5663,1200.0,570.0,True,True,True,False,True,True,False,True,True,55,39408,61509745,31753870,False,45.8211,-77.0841,1200.0,570.0,Pembroke Street East & Angus Campbell Dr,K8A6Z3,2221,1200.0,570.0,55,1080.0,660.0,pembroke street east angus campbell dr 1050 k8a6z3,(613) 732-2878,1200.0,570.0,1200.0,570.0,1200.0,570.0
325 King Street West,P.O. Box #677,Prescott,(613) 925-5275,1260.0,570.0,False,False,True,False,True,False,False,True,True,56,18268,26434962,15547017,False,44.7078,-75.5164,1080.0,570.0,Hwy. 401 & 2,K0E1T0,1161,1080.0,570.0,56,1080.0,660.0,hwy 401 2 325 king street west po box #677 prescott k0e1t0,(613) 925-2702,1080.0,570.0,1080.0,570.0,1080.0,570.0
190A Bell Boulevard,,Belleville,(613) 962-3688,1320.0,570.0,True,False,True,True,True,True,True,True,True,57,57118,93780819,48118432,False,44.1872,-77.4049,1320.0,570.0,Bell & North Front,K8P5L2,2739,1320.0,570.0,57,1080.0,660.0,bell north front 190a boulevard belleville k8p5l2,(613) 962-2132,1320.0,570.0,1320.0,570.0,1320.0,570.0
100 Waterloo Road,Hollinger Court,Timmins,(705) 267-5161,1290.0,600.0,True,True,True,False,True,True,True,True,True,58,43599,67643688,36846153,False,48.4779,-81.3371,1290.0,600.0,Waterloo & Algonquin,P4N4X5,2087,1290.0,600.0,58,1080.0,660.0,waterloo algonquin 100 road hollinger court timmins p4n4x5,(705) 268-4600,1290.0,600.0,1290.0,600.0,1290.0,600.0
55 Mary Street,,Barrie,(705) 728-2310,1200.0,600.0,False,False,True,False,True,False,True,False,True,59,55407,69090740,45406742,False,44.3889,-79.6924,1080.0,600.0,Mary & Dunlop,L4N1T2,1583,1080.0,600.0,59,1080.0,660.0,mary dunlop 55 street barrie l4n1t2,(705) 728-3868,1080.0,600.0,1080.0,600.0,1080.0,600.0
91 Wellington Street,,Stratford,(519) 271-5205,1260.0,600.0,False,False,True,True,True,False,True,True,True,60,41738,64397608,33512074,False,43.369,-80.9833,1260.0,600.0,Wellington & St. Patrick,N5A2L3,1990,1260.0,600.0,60,1080.0,660.0,wellington st patrick 91 street stratford n5a2l3,(519) 271-1343,1260.0,600.0,1260.0,600.0,1260.0,600.0
210 Wellington Street West,,Chatham,(519) 354-8093,1200.0,600.0,False,False,True,False,True,True,True,True,True,61,31232,46625761,26347319,False,42.4039,-82.1881,1080.0,600.0,Wellington & Raleigh,N7M1J6,1341,1200.0,600.0,61,1080.0,660.0,wellington raleigh 210 street west chatham n7m1j6,(519) 354-3790,1200.0,600.0,1080.0,600.0,1080.0,600.0
30 - 1010 Talbot Street,,St. Thomas,(519) 631-7520,1260.0,600.0,False,False,True,False,True,True,True,True,True,62,33787,52108786,29156053,False,42.778,-81.177,1260.0,600.0,First & Talbot Street,N5P4N2,1798,1260.0,600.0,62,1080.0,660.0,first talbot street 30 -  1010 st thomas n5p4n2,(519) 631-5000,1260.0,600.0,1260.0,600.0,1260.0,600.0
293 Bay Street,Station Mall,Sault Ste. Marie,(705) 256-0741,1260.0,570.0,False,True,True,False,True,False,True,True,True,63,40102,56917675,32758084,False,46.5121,-84.3381,1260.0,570.0,Bay and Bruce,P6A1X3,1722,1050.0,570.0,63,1020.0,720.0,bay and bruce 293 street station mall sault ste marie p6a1x3,(705) 256-3015,1260.0,570.0,1260.0,570.0,1260.0,570.0
959 Dundas Street,,Woodstock,(519) 539-5364,1260.0,600.0,False,False,True,False,True,False,True,True,True,64,45339,67683487,38333610,False,43.1345,-80.7321,1260.0,600.0,Dundas & Springbank,N4S1H2,2253,1260.0,600.0,64,1080.0,660.0,dundas springbank 959 street woodstock n4s1h2,(519) 537-3311,1260.0,600.0,1260.0,600.0,1260.0,600.0
150 Front Street,,Trenton,(613) 392-1438,1320.0,570.0,True,False,True,True,True,False,True,True,True,65,48502,81221240,39903164,False,44.1033,-77.5792,1320.0,570.0,Front & Division,K8V4N8,2589,1320.0,570.0,65,1080.0,660.0,front division 150 street trenton k8v4n8,(613) 392-3797,1320.0,570.0,1320.0,570.0,1320.0,570.0
137 Fourth Street,P.O. Box 1060,Cochrane,(705) 272-3263,1200.0,600.0,False,True,True,False,True,False,False,True,True,66,11623,18087526,9857238,False,49.0638,-81.0273,1080.0,600.0,4Th Street & 5Th Avenue,P0L1C0,713,1080.0,600.0,66,,,4th street 5th avenue 137 fourth po box 1060 cochrane p0l1c0,(705) 272-3263,1080.0,600.0,1080.0,600.0,1080.0,600.0
316 Broadway Street,P.O. Box 682,Haileybury,(705) 672-3747,1260.0,600.0,True,True,True,False,True,False,True,False,True,67,9825,14621436,11015542,False,47.4496,-79.6319,1080.0,600.0,Lakeshore & Broadway,P0J1K0,729,1080.0,600.0,67,1080.0,660.0,lakeshore broadway 316 street po box 682 haileybury p0j1k0,(705) 672-3747,1080.0,600.0,1080.0,600.0,1080.0,600.0
546 Park Street,Kenora Shoppers Mall,Kenora,(807) 468-7549,1260.0,600.0,False,False,True,False,True,True,True,True,True,68,39286,66541291,31990070,False,49.7677,-94.4824,1080.0,600.0,Park & Railway Street,P9N1A1,2090,1080.0,600.0,68,1080.0,660.0,park railway street 546 kenora shoppers mall p9n1a1,(807) 468-8022,1200.0,600.0,1080.0,600.0,1080.0,600.0
210 Third Street East,,Fort Frances,(807) 274-1159,1260.0,600.0,False,False,True,False,True,False,False,True,True,69,17103,26261328,13987669,False,48.6129,-93.3985,1080.0,600.0,Third & Mowat Street,P9A1P7,1057,1080.0,600.0,69,1080.0,660.0,third mowat street 210 east fort frances p9a1p7,(807) 274-3851,1080.0,600.0,1080.0,600.0,1080.0,600.0
123 Lombard Street,,Smiths Falls,(613) 283-9118,1260.0,570.0,False,False,True,False,True,False,False,True,True,70,34667,52868842,29217684,False,44.8907,-76.0307,1200.0,570.0,Lombard St & Ferrara Dr,K7A5B8,2021,1200.0,570.0,70,1080.0,660.0,lombard st ferrara dr 123 street smiths falls k7a5b8,(613) 283-2358,1260.0,570.0,1200.0,570.0,1200.0,570.0
189 King Street East,,Gananoque,(613) 382-1882,1200.0,570.0,False,False,False,False,True,False,True,False,True,71,16795,26119430,14619386,False,44.3305,-76.1608,1080.0,570.0,King & Charles Street,K7G1G3,1066,1200.0,570.0,71,1080.0,660.0,king charles street 189 east gananoque k7g1g3,(613) 382-3501,1080.0,570.0,1080.0,570.0,1080.0,570.0
80 Dufferin Street,,Perth,(613) 267-1696,1260.0,570.0,False,False,True,False,True,True,True,True,True,72,30540,44613430,24508768,False,44.9076,-76.265,1080.0,570.0,Dufferin & Wilson,K7H3A7,1778,1200.0,570.0,72,1080.0,660.0,dufferin wilson 80 street perth k7h3a7,(613) 267-1697,1260.0,570.0,1080.0,570.0,1080.0,570.0
1145 King Street East,,Preston,(519) 653-4952,1260.0,600.0,False,False,True,False,True,False,True,False,True,73,31271,44702143,27070681,False,43.3929,-80.3522,1200.0,600.0,King & Dolph,N3H3P7,1537,1200.0,600.0,73,1080.0,660.0,king dolph 1145 street east cambridge preston cambridge-preston cambridgepreston n3h3p7,(519) 653-6921,1260.0,600.0,1200.0,600.0,1200.0,600.0
154 Queensway Road East,,Simcoe,(519) 426-8543,1260.0,600.0,True,False,False,False,True,False,True,True,True,74,39651,59039241,32499754,False,42.8488,-80.2879,1260.0,600.0,Queensway and Ireland,N3Y2N6,2347,1260.0,600.0,74,1080.0,660.0,queensway and ireland 154 road east simcoe n3y2n6,(519) 426-2115,1260.0,600.0,1260.0,600.0,1260.0,600.0
187 Devonshire Ave,P.O.BOX. 354,Iroquois Falls,(705) 258-3202,1080.0,600.0,False,True,True,False,True,False,False,False,True,75,7771,12423866,7188820,False,48.767,-80.6785,1080.0,600.0,Devonshire & Cambridge Avenue,P0K1E0,647,1080.0,600.0,75,,,devonshire cambridge avenue 187 ave pobox 354 iroquois falls p0k1e0,(705) 258-3202,1080.0,600.0,1080.0,600.0,1080.0,600.0
28 Silver Street,P.O. Box 639,Cobalt,(705) 679-5536,1080.0,600.0,True,True,True,False,False,False,True,False,True,76,7797,9365465,8221049,False,47.3957,-79.686,,,Grandview Ave & Silver Street,P0J1C0,431,1080.0,600.0,76,,,grandview ave silver street 28 po box 639 cobalt p0j1c0,(705) 679-5536,1080.0,600.0,1080.0,600.0,1080.0,600.0
Unit #116,2 Poyntz Street,Penetang,(705) 549-2529,1260.0,600.0,False,True,True,False,True,True,False,True,True,77,19941,32880710,18108516,False,44.7655,-79.932,1080.0,600.0,Poyntz Street & Penetang Road,L9M1M2,1458,1080.0,600.0,77,1080.0,660.0,poyntz street penetang road unit #116 2 l9m1m2,(705) 549-2526,1080.0,600.0,1080.0,600.0,1080.0,600.0
55 Armstrong Street,P.O. Box 1469,New Liskeard,(705) 647-4071,1260.0,600.0,True,True,True,False,True,False,True,True,True,78,16347,25355157,13771790,False,47.5069,-79.6711,1080.0,600.0,Armstrong & Cedar,P0J1P0,1048,1080.0,600.0,78,1080.0,660.0,armstrong cedar 55 street po box 1469 new liskeard p0j1p0,(705) 647-4071,1080.0,600.0,1080.0,600.0,1080.0,600.0
15 Ontario Street,,Port Hope,(905) 885-4366,1200.0,570.0,False,False,True,False,True,True,True,False,True,79,27987,47311190,22878970,False,43.9521,-78.2938,1080.0,570.0,Walton Street & Peter Street,L1A2T7,1736,1080.0,570.0,79,1080.0,660.0,walton street peter 15 ontario port hope l1a2t7,(905) 885-5668,1080.0,570.0,1080.0,570.0,1080.0,570.0
19 Seguin Street,,Parry Sound,(705) 746-6376,1260.0,600.0,False,False,True,True,True,True,False,False,True,80,33788,54678300,25903037,False,45.3437,-80.0328,1080.0,600.0,Sequin & Miller,P2A1B2,2096,1080.0,600.0,80,1080.0,660.0,sequin miller 19 seguin street parry sound p2a1b2,(705) 746-5591,1080.0,600.0,1080.0,600.0,1080.0,600.0
55 Front Street,P.O. Box 66,Sturgeon Falls,(705) 753-5074,1260.0,600.0,True,True,True,False,True,True,True,True,True,81,21182,32391576,18962424,False,46.3663,-79.9305,1140.0,600.0,Front & Holditch,P2B2G8,1397,1080.0,600.0,81,1080.0,660.0,front holditch 55 street po box 66 sturgeon falls p2b2g8,(705) 753-0920,1260.0,600.0,1140.0,600.0,1140.0,600.0
449 Kent Street West,,Lindsay,(705) 324-7287,1320.0,570.0,True,False,True,True,True,False,True,True,True,82,49165,81302783,38190919,False,44.3485,-78.7645,1320.0,570.0,Kent & Hwy 35,K9V6C3,2799,1320.0,570.0,82,1080.0,660.0,kent hwy 35 449 street west lindsay k9v6c3,(705) 324-5511,1320.0,570.0,1320.0,570.0,1320.0,570.0
56 Main Street East,,Hawkesbury,(613) 632-4551,1260.0,570.0,False,True,True,True,True,True,True,True,True,83,57647,97667598,44980765,False,45.6089,-74.6122,1260.0,570.0,Hwy 34 & Hwy 17,K6A1A3,2736,1260.0,570.0,83,1080.0,660.0,hwy 34 17 56 main street east hawkesbury k6a1a3,(613) 632-2121,1260.0,570.0,1260.0,570.0,1260.0,570.0
2 Lake Street,P.O. Box 8135,Picton,(613) 476-6685,1260.0,570.0,True,False,True,True,True,True,False,True,True,84,47378,84073303,38803707,False,44.0033,-77.1511,1140.0,570.0,Hwy. 62 / 33 & County Road 10,K0K2T0,2539,1200.0,570.0,84,1080.0,660.0,hwy 62 33 county road 10 2 lake street po box 8135 picton k0k2t0,(613) 476-2862,1260.0,570.0,1140.0,570.0,1140.0,570.0
10 Williams Street West,,Arnprior,(613) 623-7054,1200.0,570.0,False,False,True,False,True,False,True,False,True,85,24954,40353679,21108019,False,45.4304,-76.3575,1080.0,570.0,Daniel & William,K7S1J8,1484,1200.0,570.0,85,1080.0,660.0,daniel william 10 williams street west arnprior k7s1j8,(613) 623-2842,1200.0,570.0,1080.0,570.0,1080.0,570.0
99 King Street North,,Dryden,(807) 223-2360,1260.0,600.0,False,False,True,False,True,True,False,False,True,86,14674,24368121,12248407,False,49.7844,-92.8343,1080.0,600.0,King Street & Kirkpatrick,P8N1C1,1015,1080.0,600.0,86,1080.0,660.0,king street kirkpatrick 99 north dryden p8n1c1,(807) 223-4029,1080.0,600.0,1080.0,600.0,1080.0,600.0
44 Front Street,P.O. Box 9,Sioux Lookout,(807) 737-8072,1080.0,600.0,False,False,False,False,True,False,False,False,True,87,13180,21039566,10511592,False,50.0981,-91.9152,1080.0,600.0,Front St & Fourth Ave,P8T1A1,948,1080.0,600.0,87,1080.0,660.0,front st fourth ave 44 street po box 9 sioux lookout p8t1a1,(807) 737-1753,1080.0,600.0,1080.0,600.0,1080.0,600.0
25 Mechanic Street,,Paris,(519) 442-6032,1260.0,600.0,False,False,True,False,True,True,True,False,True,88,23147,29751208,18369010,False,43.1919,-80.3843,1200.0,600.0,Mechanic St. and Broadway St.,N3L1K1,1297,1260.0,600.0,88,1080.0,660.0,mechanic st and broadway 25 street paris n3l1k1,(519) 442-2541,1260.0,600.0,1200.0,600.0,1200.0,600.0
450 Valois Drive,P.O. Box 159,Mattawa,(705) 744-5381,1200.0,600.0,False,True,True,False,True,False,True,True,True,89,8836,12650025,7319558,False,46.3169,-78.7006,1080.0,600.0,Mcconnell & Main Street,P0H1V0,636,1080.0,600.0,89,1080.0,660.0,mcconnell main street 450 valois drive po box 159 mattawa p0h1v0,(705) 744-5381,1080.0,600.0,1080.0,600.0,1080.0,600.0
45 Richmond Street West,,Oshawa,(905) 723-6933,1260.0,570.0,False,False,True,False,True,False,True,False,True,90,32451,48688120,26167708,False,43.8987,-78.866,1080.0,570.0,Center & Richmond Street,L1G1C9,1495,1080.0,570.0,90,1080.0,660.0,center richmond street 45 west oshawa l1g1c9,(905) 723-7033,1080.0,570.0,1080.0,570.0,1080.0,570.0
5 Summer Hayes Avenue,P.O. Box 306,Kirkland Lake,(705) 567-3686,1260.0,600.0,False,True,True,False,True,False,False,True,True,91,16914,23719885,13800395,False,48.1523,-80.0362,1080.0,600.0,Summer Hayes & Duncan Avenue,P2N3H7,890,1080.0,600.0,91,1080.0,660.0,summer hayes duncan avenue 5 po box 306 kirkland lake p2n3h7,(705) 567-3686,1080.0,600.0,1080.0,600.0,1080.0,600.0
65 Fourth Avenue,P.O. Box 160,Englehart,(705) 544-2549,1200.0,600.0,True,True,True,False,True,False,False,False,True,92,9878,15742908,11293262,False,47.8257,-79.8739,1080.0,600.0,Fourth Avenue & Third Street,P0J1H0,743,1080.0,600.0,92,1080.0,660.0,fourth avenue third street 65 po box 160 englehart p0j1h0,(705) 544-2549,1080.0,600.0,1080.0,600.0,1080.0,600.0
1105 Thompson Road,,Fort Erie,(905) 871-1171,1260.0,600.0,True,False,True,False,True,False,False,True,True,93,35381,54584885,30232920,False,42.9073,-78.9414,1260.0,600.0,Thompson & Garrison Rd,L2A6T7,2093,1260.0,600.0,93,1080.0,660.0,thompson garrison rd 1105 road fort erie l2a6t7,(905) 871-0562,1260.0,600.0,1260.0,600.0,1260.0,600.0
234 Bonnechere Street,,Eganville,(613) 628-2100,1200.0,570.0,False,False,True,False,True,False,False,False,True,94,17898,24311736,14866940,False,45.5439,-77.1055,1080.0,570.0,Hwy. 41 & Hwy 60,K0J1T0,1033,1080.0,570.0,94,1080.0,660.0,hwy 41 60 234 bonnechere street eganville k0j1t0,(613) 628-2100,1080.0,570.0,1080.0,570.0,1080.0,570.0
"200 Franklin Blvd., Unit Fs 3",,Cambridge,(519) 621-3179,1260.0,600.0,False,False,True,True,True,False,True,True,True,95,50539,81659335,42255312,False,43.3571,-80.2866,1260.0,600.0,Franklin & Dundas,N1R8N8,2526,1260.0,600.0,95,1080.0,660.0,franklin dundas 200 blvd unit fs 3 cambridge n1r8n8,(519) 621-6330,1260.0,600.0,1260.0,600.0,1260.0,600.0
78 St. George Street,P.O. Box 278,Deseronto,(613) 396-3864,1200.0,570.0,True,False,True,False,True,False,True,False,True,96,8011,14698299,11745053,False,44.1949,-77.0503,1080.0,570.0,Dundas Street & St. George Street,K0K1X0,636,1080.0,570.0,96,1080.0,660.0,dundas street st george 78 po box 278 deseronto k0k1x0,(613) 396-2711,1080.0,570.0,1080.0,570.0,1080.0,570.0
10 Alkenbrack Street,Unit 1,Napanee,(613) 354-5667,1200.0,570.0,False,False,True,False,True,True,False,True,True,97,35338,50942361,30532613,False,44.2567,-76.9613,1140.0,570.0,Alkenbrack and Centre St. North,K7R0A6,1683,1200.0,570.0,97,1080.0,660.0,alkenbrack and centre st north 10 street unit 1 napanee k7r0a6,(613) 354-5746,1140.0,570.0,1140.0,570.0,1140.0,570.0
372 Main Street South,,Alexandria,(613) 525-3010,1200.0,570.0,False,True,True,False,True,False,False,False,True,98,17799,23623259,14820138,False,45.3014,-74.6292,1080.0,570.0,Main & Lochiel,K0C1A0,1157,1080.0,570.0,98,1080.0,660.0,main lochiel 372 street south alexandria k0c1a0,(613) 525-3010,1080.0,570.0,1080.0,570.0,1080.0,570.0
757 Notre Dame Street,,Embrun,(613) 443-9499,1200.0,570.0,False,True,True,False,True,True,False,True,True,99,20469,30407203,16849741,False,45.2686,-75.3024,1080.0,570.0,Notre Dame & Ste Marie,K0A1W1,1266,1080.0,570.0,99,1080.0,660.0,notre dame ste marie 757 street embrun k0a1w1,(613) 443-2112,1200.0,570.0,1080.0,570.0,1080.0,570.0
25 Elm Street,,Grimsby,(905) 945-6724,1260.0,600.0,False,False,True,False,True,True,False,False,True,101,33296,51991891,28873688,False,43.1925,-79.5619,1260.0,600.0,Christie & Main Street,L3M1H4,1911,1260.0,600.0,101,1080.0,660.0,christie main street 25 elm grimsby l3m1h4,(905) 945-4845,1260.0,600.0,1260.0,600.0,1260.0,600.0
155 Edward Street,,Gravenhurst,(705) 687-8876,1200.0,600.0,True,False,True,True,True,False,False,True,True,102,32682,66923081,25964325,False,44.9085,-79.37,1080.0,600.0,Edward Street & Talisman Drive,P1P1K8,2668,1080.0,600.0,102,1080.0,660.0,edward street talisman drive 155 gravenhurst p1p1k8,(705) 687-2641,1080.0,600.0,1080.0,600.0,1080.0,600.0
139 Barber Street,Box 4073,Espanola,(705) 869-6398,1200.0,600.0,False,True,True,False,True,False,False,False,True,103,15924,23236133,13864808,False,46.2644,-81.7715,1080.0,600.0,Hwy. 6 & Barber Street,P5E1S4,1053,1080.0,600.0,103,1080.0,660.0,hwy 6 barber street 139 box 4073 espanola p5e1s4,(705) 869-1950,1080.0,600.0,1080.0,600.0,1080.0,600.0
163 Main Street,Box 8,Thessalon,(705) 842-2112,1080.0,600.0,True,True,True,False,True,False,False,False,True,104,9239,14305681,12340466,False,46.2559,-83.5569,1080.0,600.0,Hwy. 17B & Huron Street,P0R1L0,610,1080.0,600.0,104,1080.0,660.0,hwy 17b huron street 163 main box 8 thessalon p0r1l0,(705) 842-2112,1080.0,600.0,1080.0,600.0,1080.0,600.0
714 Addington Street East,P.O. Box 100,Tamworth,(613) 379-2201,1200.0,570.0,True,False,False,False,True,False,True,False,True,105,11935,17787444,15310129,False,44.4879,-76.9944,1080.0,570.0,Hwy. 41 & Country Road 4,K0K3G0,731,1080.0,570.0,105,1080.0,660.0,hwy 41 country road 4 714 addington street east po box 100 tamworth k0k3g0,(613) 379-2201,1080.0,570.0,1080.0,570.0,1080.0,570.0
91 King William Street Unit 1,,Huntsville,(705) 789-9852,1200.0,600.0,False,False,True,True,True,False,True,True,True,106,53277,87910252,42327240,False,45.3353,-79.203,1200.0,600.0,Hwy. 11B & William Street,P1H1E5,2986,1200.0,600.0,106,1080.0,660.0,hwy 11b william street 91 king unit 1 huntsville p1h1e5,(705) 789-2591,1200.0,600.0,1200.0,600.0,1200.0,600.0
440 Main Street West,P.O. Box 58,Palmerston,(519) 343-3298,1260.0,600.0,True,False,True,False,True,False,True,False,True,107,12913,17670510,16135263,False,43.833,-80.8576,1080.0,600.0,Hwy. 89 & 23,N0G2P0,887,1080.0,600.0,107,1080.0,660.0,hwy 89 23 440 main street west po box 58 palmerston n0g2p0,(519) 343-2620,1080.0,600.0,1080.0,600.0,1080.0,600.0
30 Woodward Avenue,P.O. Box 1900,Blind River,(705) 356-9881,1080.0,600.0,False,True,True,False,True,False,True,False,True,108,10263,15678716,9213709,False,46.1867,-82.9535,1080.0,600.0,Woodward Avenue & Murray Stree,P0R1B0,714,1080.0,600.0,108,,,woodward avenue murray stree 30 po box 1900 blind river p0r1b0,(705) 356-9881,1080.0,600.0,1080.0,600.0,1080.0,600.0
495 Sandwich Street South,,Amherstburg,(519) 736-9341,1260.0,600.0,False,False,True,False,False,False,True,False,True,109,29697,41134840,24142524,False,42.0938,-83.1072,1080.0,600.0,Sandwich & Pickering,N9V3G5,1435,1200.0,600.0,109,1080.0,660.0,sandwich pickering 495 street south amherstburg n9v3g5,(519) 736-4171,1200.0,600.0,1080.0,600.0,1080.0,600.0
30 Mcnaughton Avenue Unit #10,,Wallaceburg,(519) 627-3370,1260.0,600.0,False,False,True,False,True,False,True,False,True,110,21412,31384216,18340379,False,42.5881,-82.3866,1080.0,600.0,Mcnaughton & Hwy 40,N8A1R9,1200,1080.0,600.0,110,1080.0,660.0,mcnaughton hwy 40 30 avenue unit #10 wallaceburg n8a1r9,(519) 627-5211,1080.0,600.0,1080.0,600.0,1080.0,600.0
15 Church Street,Unit #3,Westport,(613) 273-6128,1080.0,570.0,False,False,True,False,True,False,True,True,False,111,10875,15456291,8289052,False,44.6791,-76.3961,1080.0,570.0,Church & Bedford,K0G1X0,791,1080.0,570.0,111,1080.0,660.0,church bedford 15 street unit #3 westport k0g1x0,(613) 273-2853,1080.0,570.0,1080.0,570.0,1080.0,570.0
25 Brunetville Road,Model City Mall,Kapuskasing,(705) 335-8831,1260.0,600.0,False,True,True,False,True,False,False,True,True,112,13151,20307096,11108332,False,49.4195,-82.4176,1080.0,600.0,Brunetville Road & Ash Street,P5N2E9,949,1080.0,600.0,112,1020.0,660.0,brunetville road ash street 25 model city mall kapuskasing p5n2e9,(705) 335-2835,1080.0,600.0,1080.0,600.0,1080.0,600.0
18 Dunn Street,Po Box 279,Barry's Bay,(613) 756-2022,1200.0,570.0,False,False,True,False,True,False,False,False,True,113,14991,19522360,11477744,False,45.488,-77.6801,1080.0,570.0,Hwy. 60 & 62,K0J1B0,916,1080.0,570.0,113,1080.0,660.0,hwy 60 62 18 dunn street po box 279 barry's barrys bay k0j1b0,(613) 756-2022,1080.0,570.0,1080.0,570.0,1080.0,570.0
318 Atwood Avenue,P.O. Box 175,Rainy River,(807) 852-1408,1080.0,600.0,False,False,True,False,False,False,False,True,True,114,7781,12734911,10601768,False,48.7221,-94.5709,1080.0,600.0,6Th & Atwood,P0W1L0,643,1080.0,600.0,114,,,6th atwood 318 avenue po box 175 rainy river p0w1l0,(807) 852-3262,1080.0,600.0,1080.0,600.0,,
115 King Street South,,Waterloo,(519) 886-1572,1320.0,600.0,False,False,True,True,True,False,True,True,True,115,89945,139610213,68081900,False,43.462,-80.5218,1320.0,600.0,King S. & William,N2J5A3,3453,1320.0,600.0,115,1080.0,660.0,king s william 115 street south waterloo n2j5a3,(519) 886-4970,1320.0,600.0,1320.0,600.0,1320.0,600.0
31 Church Street West,,Elmira,(519) 669-0317,1260.0,600.0,False,False,True,False,True,False,True,False,True,116,15023,20965266,12487572,False,43.6,-80.5599,1080.0,600.0,Church & Arthur Street,N3B1M2,1066,1080.0,600.0,116,1080.0,660.0,church arthur street 31 west elmira n3b1m2,(519) 669-5565,1260.0,600.0,1080.0,600.0,1080.0,600.0
25 Lorne Street South,P.O. Box 1707,Chapleau,(705) 864-0392,1200.0,600.0,False,True,True,False,True,False,False,False,False,117,9265,14305224,8158165,False,47.8426,-83.4009,,,Lorne Street & Birch Road,P0M1K0,650,1080.0,600.0,117,,,lorne street birch road 25 south po box 1707 chapleau p0m1k0,(705) 864-0392,1080.0,600.0,1080.0,600.0,1080.0,600.0
12 Hanna Street,P.O. Box 968,Capreol,(705) 858-1552,1260.0,600.0,True,True,True,False,True,False,True,False,True,118,10128,15782844,16754849,False,46.7062,-80.9219,1080.0,600.0,Hanna & Dennie,P0M1H0,623,1080.0,600.0,118,1080.0,660.0,hanna dennie 12 street po box 968 capreol p0m1h0,(705) 858-1552,1080.0,600.0,1080.0,600.0,1080.0,600.0
205 Elgin Street,Box 190,Merrickville,(613) 269-4423,1260.0,570.0,True,False,True,False,True,False,False,False,True,119,15925,20261112,13861359,False,44.9154,-75.8348,1080.0,570.0,Elgin & Wellington St,K0G1N0,1008,1080.0,570.0,119,1080.0,660.0,elgin wellington st 205 street box 190 merrickville k0g1n0,(613) 269-4623,1080.0,570.0,1080.0,570.0,1080.0,570.0
1109 Westshore Road,,Pelee Island,(519) 724-2383,1080.0,600.0,False,False,True,False,True,False,True,False,False,120,11501,13734024,10705828,False,41.762,-82.6887,1080.0,600.0,West Dock,N0R1M0,617,1080.0,600.0,120,,,west dock 1109 westshore road pelee island n0r1m0,(519) 724-2961,1080.0,600.0,1080.0,600.0,,
3926 Champlain Street,P.O. Box 39,Bourget,(613) 487-3372,1080.0,570.0,False,True,True,False,False,False,False,False,True,121,6579,8560328,8051726,False,45.4312,-75.1563,,,Russel & Champlain Road,K0A1E0,528,1080.0,570.0,121,1080.0,660.0,russel champlain road 3926 street po box 39 bourget k0a1e0,(613) 487-3372,1080.0,570.0,1080.0,570.0,1080.0,570.0
806 George Street,P.O. Box 158,Hearst,(705) 362-4556,1260.0,600.0,False,True,True,False,True,False,False,True,True,122,11747,18987070,10067236,False,49.6887,-83.6633,1080.0,600.0,8Th Street & George Street,P0L1N0,855,1080.0,600.0,122,1080.0,660.0,8th street george 806 po box 158 hearst p0l1n0,(705) 362-4556,1080.0,600.0,1080.0,600.0,1080.0,600.0
16 Molan Street,,Lancaster,(613) 347-2056,1080.0,570.0,True,True,True,False,True,True,False,False,True,123,17022,25445678,15646628,False,45.1413,-74.4987,1080.0,570.0,Molan Street & Hwy 34,K0C1N0,1205,1080.0,570.0,123,1080.0,660.0,molan street hwy 34 16 lancaster k0c1n0,(613) 347-2056,1080.0,570.0,1080.0,570.0,1080.0,570.0
20 Queen Street,P.O. Box 910,Niagara-On-The-Lake,(905) 468-8729,1200.0,600.0,True,False,False,False,True,False,True,True,True,124,19189,31516283,17857866,False,43.255,-79.0716,1080.0,600.0,Queen & King,L0S1J0,1182,1200.0,600.0,124,1080.0,660.0,queen king 20 street po box 910 niagara on the lake niagara-on-the-lake niagaraonthelake l0s1j0,(905) 468-3321,1080.0,600.0,1080.0,600.0,1080.0,600.0
3000 Richelieu Street - Unit 2,,Rockland,(613) 446-4421,1200.0,570.0,False,True,True,False,True,False,True,True,True,125,37157,57287586,31433265,False,45.5339,-75.3056,1200.0,570.0,Richelieu & Poupart,K4K0B5,2009,1200.0,570.0,125,1080.0,660.0,richelieu poupart 3000 street -  unit 2 rockland k4k0b5,(613) 446-4472,1200.0,570.0,1200.0,570.0,1200.0,570.0
34 Queen Street South,P.O. Box 250,Tilbury,(519) 682-1451,1200.0,600.0,False,True,True,False,True,False,False,False,True,126,15273,22282165,12256058,False,42.2577,-82.4321,1080.0,600.0,Hwy. 2 & Queen Street,N0P2L0,1114,1080.0,600.0,126,1080.0,660.0,hwy 2 queen street 34 south po box 250 tilbury n0p2l0,(519) 682-1451,1080.0,600.0,1080.0,600.0,1080.0,600.0
15 Main Street,P.O. Box Morrisburg Shopping Centre,Morrisburg,(613) 543-0865,1200.0,570.0,False,True,True,False,True,False,False,True,True,127,14349,20560188,10685599,False,44.9004,-75.1837,1080.0,570.0,Hwy. 31 & 2,K0C1X0,927,1080.0,570.0,127,1080.0,660.0,hwy 31 2 15 main street po box morrisburg shopping centre k0c1x0,(613) 543-2552,1080.0,570.0,1080.0,570.0,1080.0,570.0
65 Bruce Street,65 Bruce Street,South Porcupine,(705) 235-4722,1200.0,600.0,False,True,True,False,True,False,True,True,True,128,10405,16492576,9605442,False,48.4779,-81.2117,1080.0,600.0,Bruce & Main Street,P0N1H0,723,1080.0,600.0,128,1080.0,660.0,bruce main street 65 south porcupine p0n1h0,(705) 235-4722,1080.0,600.0,1080.0,600.0,1080.0,600.0
100 Main Street,P.O. Box 310,Geraldton,(807) 854-1171,1080.0,600.0,False,True,True,False,True,False,False,False,False,129,8049,12706128,6974263,False,49.7254,-86.9482,,,3 Street & Main Street,P0T1M0,649,1080.0,600.0,129,,,3 street main 100 po box 310 geraldton p0t1m0,(807) 854-1171,1080.0,600.0,1080.0,600.0,1080.0,600.0
125 Muskoka Road 118 West,,Bracebridge,(705) 645-8904,1200.0,600.0,True,False,True,True,True,False,True,True,True,130,40338,79533998,34476696,False,45.0441,-79.3261,1200.0,600.0,Wellington Street & Muskoka Road,P1L1T4,2783,1200.0,600.0,130,1080.0,660.0,wellington street muskoka road 125 118 west bracebridge p1l1t4,(705) 645-6956,1200.0,600.0,1200.0,600.0,1200.0,600.0
20 Main Street West,,Ridgetown,(519) 674-3303,1200.0,600.0,False,False,True,False,True,False,True,True,False,131,10834,16509625,9701418,False,42.4388,-81.8875,1080.0,600.0,County Road Hwy. 19 & 21,N0P2C0,832,1080.0,600.0,131,,,county road hwy 19 21 20 main street west ridgetown n0p2c0,(519) 674-3303,1080.0,600.0,1080.0,600.0,1080.0,600.0
525 Mcneely Avenue,,Carleton Place,(613) 257-3775,1260.0,570.0,False,False,True,True,True,True,True,True,True,132,62533,99243767,51654187,False,45.1325,-76.1186,1260.0,570.0,Mcneely Ave & Trans-Canada Hwy,K7C0A8,2727,1260.0,570.0,132,1080.0,660.0,mcneely ave trans canada trans-canada transcanada hwy 525 avenue carleton place k7c0a8,(613) 257-1646,1260.0,570.0,1260.0,570.0,1260.0,570.0
4353 Petrolia Street,P.O. Box 539,Petrolia,(519) 882-2010,1200.0,600.0,False,False,True,False,True,False,True,False,True,133,10292,16438099,9408649,False,42.8813,-82.1342,1080.0,600.0,Petrolia Line & Hwy 21,N0N1R0,734,1080.0,600.0,133,1080.0,660.0,petrolia line hwy 21 4353 street po box 539 n0n1r0,(519) 882-2010,1080.0,600.0,1080.0,600.0,1080.0,600.0
38 Government Road,P.O. Box 99,Larder Lake,(705) 643-2356,,,False,True,True,False,True,False,False,False,True,134,0,0,0,True,48.1006,-79.7135,,,Government Road & Godfrey Stre,P0K1L0,0,,,134,,,government road godfrey stre 38 po box 99 larder lake p0k1l0,(705) 643-2356,,,,,,
219 Russell Street,Po Box 101,Madoc,(613) 473-4123,1200.0,570.0,False,False,True,False,True,False,True,False,True,135,11609,18165947,9441775,False,44.5101,-77.4784,1080.0,570.0,Hwy. 62 & 7,K0K2K0,860,1080.0,570.0,135,1080.0,660.0,hwy 62 7 219 russell street po box 101 madoc k0k2k0,(613) 473-2951,1080.0,570.0,1080.0,570.0,1080.0,570.0
18 Water Street,P.O. Box 208,Minden,(705) 286-2028,1200.0,570.0,False,False,True,False,True,False,False,True,True,136,14014,20930012,11540195,False,44.9266,-78.7234,1080.0,570.0,Hwy. 35 & South Water Street,K0M2K0,1050,1080.0,570.0,136,1080.0,660.0,hwy 35 south water street 18 po box 208 minden k0m2k0,(705) 286-1311,1080.0,570.0,1080.0,570.0,1080.0,570.0
4 Discovery Road,Po Box 317,Red Lake,(807) 727-3921,1080.0,600.0,False,False,True,False,True,False,False,True,True,137,13015,19845345,10490473,False,51.018,-93.8228,1080.0,600.0,Hwy. 105 & Discovery Road,P0V2M0,723,1080.0,600.0,137,,,hwy 105 discovery road 4 po box 317 red lake p0v2m0,(807) 727-2448,1080.0,600.0,1080.0,600.0,1080.0,600.0
125 Oak Street West,,Bothwell,(519) 695-2720,1080.0,600.0,False,False,True,False,True,False,False,False,True,138,7592,9696594,5580119,False,42.6296,-81.8703,1080.0,600.0,Main & Oak Street,N0P1C0,489,1080.0,600.0,138,,,main oak street 125 west bothwell n0p1c0,(519) 695-2720,1080.0,600.0,1080.0,600.0,,
20954 Dalton Rd,,Sutton,(905) 722-9085,1260.0,570.0,True,False,True,False,True,True,True,False,True,139,40489,59703073,34502071,False,44.303,-79.3581,1260.0,570.0,Dalton & Black River Rd,L0E1R0,2216,1260.0,570.0,139,1080.0,660.0,dalton black river rd 20954 sutton l0e1r0,(905) 722-3641,1260.0,570.0,1260.0,570.0,1260.0,570.0
230 Montreal Road,,Vanier,(613) 745-7416,1260.0,570.0,False,True,True,True,True,True,True,True,False,140,69232,96784024,54709747,False,45.4358,-75.662,1260.0,570.0,Montreal Road and Vanier Parkway,K1L6C6,2495,1260.0,570.0,140,1080.0,660.0,montreal road and vanier parkway 230 ottawa ottawa-vanier ottawavanier k1l6c6,(613) 745-1523,1260.0,570.0,1260.0,570.0,1260.0,570.0
119 King Street West,P.O. Box 1057,Harrow,(519) 738-3709,1200.0,600.0,False,False,True,False,True,False,True,False,True,141,21098,29713380,17310479,False,42.0353,-82.9207,1080.0,600.0,King Street & Walker Road,N0R1G0,1098,1080.0,600.0,141,1080.0,660.0,king street walker road 119 west po box 1057 harrow n0r1g0,(519) 738-4113,1080.0,600.0,1080.0,600.0,1080.0,600.0
18 Front Street West,P.O. Box 21,Hastings,(705) 696-2297,1140.0,570.0,False,False,True,False,False,False,True,False,True,142,16157,21138213,11854653,False,44.3089,-77.9576,1080.0,570.0,Hwy. 45 & Front Street,K0L1Y0,950,1080.0,570.0,142,1080.0,660.0,hwy 45 front street 18 west po box 21 hastings k0l1y0,(705) 696-2291,1080.0,570.0,1080.0,570.0,1080.0,570.0
233 Dundurn Street South,,Hamilton,(905) 529-6652,1320.0,570.0,False,True,True,True,True,True,True,True,True,143,49056,75668801,39410401,False,43.2545,-79.891,1320.0,570.0,Dundurn & Charlton,L8P4K8,2267,1320.0,570.0,143,1080.0,660.0,dundurn charlton 233 street south hamilton l8p4k8,(905) 529-8761,1320.0,570.0,1320.0,570.0,1320.0,570.0
910 O'Brien Road,Bldg. a,Renfrew,(613) 432-6639,1200.0,570.0,True,False,True,False,True,True,False,True,True,144,28347,43990248,22763969,False,45.4778,-76.6558,1080.0,570.0,O'Brien & Wrangler Road,K7V3Z4,1883,1200.0,570.0,144,1080.0,660.0,o'brien obrien wrangler road 910 bldg a renfrew k7v3z4,(613) 432-2383,1200.0,570.0,1080.0,570.0,1080.0,570.0
484 Holland Street West,Unit #1,Bradford,(905) 775-2857,1260.0,600.0,False,False,True,False,True,False,True,True,True,145,46079,72411056,39960875,False,44.1077,-79.5914,1260.0,600.0,Holland Street West & Summerlyn Trail,L3Z0A2,2455,1260.0,600.0,145,1080.0,660.0,holland street west summerlyn trail 484 unit #1 bradford l3z0a2,(905) 775-3481,1260.0,600.0,1260.0,600.0,1260.0,600.0
11 Grosvenor,P.O. Box 105,Southampton,(519) 797-1231,1080.0,600.0,False,False,True,False,False,False,False,False,True,146,14516,19910017,11766456,False,44.496,-81.3735,1080.0,600.0,Grosvenor & High Street,N0H2L0,1069,1080.0,600.0,146,1080.0,660.0,grosvenor high street 11 po box 105 southampton n0h2l0,(519) 797-3545,1080.0,600.0,1080.0,600.0,1080.0,600.0
21 Third Street,P.O. Box 278,Nipigon,(807) 887-2630,1080.0,600.0,False,False,True,False,True,False,False,False,True,147,6376,10853878,5700230,False,49.0125,-88.2619,,,Third Street & Newton Avenue,P0T2J0,633,1080.0,600.0,147,,,third street newton avenue 21 po box 278 nipigon p0t2j0,(807) 887-2630,1080.0,600.0,1080.0,600.0,1080.0,600.0
270 North Service Road West,"Oakville Town Centre W., BLK.C,. #16",Oakville,(905) 338-0716,1320.0,600.0,False,False,True,True,True,False,True,True,True,148,57178,100052882,47917452,False,43.4459,-79.7046,1320.0,600.0,N Service Rd & Dorval,L6M2R8,2763,1320.0,600.0,148,1080.0,660.0,n service rd dorval 270 north road west oakville town centre w blkc #16 l6m2r8,(905) 338-1039,1320.0,600.0,1320.0,600.0,1320.0,600.0
2946 Bloor Street West,,Etobicoke,(416) 239-5266,1260.0,600.0,False,True,False,True,True,True,True,True,False,149,86901,173458418,65070719,False,43.6483,-79.5081,1260.0,600.0,Bloor & Royal York,M8X1B7,3953,1260.0,600.0,149,1080.0,660.0,bloor royal york 2946 street west toronto etobicoke toronto-etobicoke torontoetobicoke m8x1b7,(416) 239-3065,1260.0,600.0,1260.0,600.0,1260.0,600.0
Suite 1 - 1C Ontario Street,P.O. Box 329,Marathon,(807) 229-0691,1080.0,600.0,False,True,True,False,True,False,True,False,True,151,7887,11631605,7127177,False,48.7185,-86.3808,1080.0,600.0,Ontario & Peninsula Road,P0T2E0,522,1080.0,600.0,151,,,ontario peninsula road suite 1 -  1c street po box 329 marathon p0t2e0,(807) 229-0691,1080.0,600.0,1080.0,600.0,1080.0,600.0
199 Wentworth Street West,Lake Vista Plaza,Oshawa,(905) -       ,1260.0,570.0,False,False,True,False,False,True,True,False,True,152,25989,35188992,21424228,False,43.8691,-78.8502,1080.0,570.0,Wentworth & Cedar,L1J6P4,1434,1200.0,570.0,152,1080.0,660.0,wentworth cedar 199 street west lake vista plaza oshawa l1j6p4,(905) 725-9535,1200.0,570.0,1080.0,570.0,1080.0,570.0
16 Seacliff Dr. East,,Leamington,(519) 326-1645,1260.0,600.0,False,False,True,False,True,False,True,True,True,153,36139,59245890,31339432,False,42.0335,-82.5981,1260.0,600.0,Erie South & Seacliff Drive,N8H3C4,2166,1260.0,600.0,153,1080.0,660.0,erie south seacliff drive 16 dr east leamington n8h3c4,(519) 326-3481,1260.0,600.0,1260.0,600.0,1260.0,600.0
1089 Midland Avenue,,Kingston,(613) 384-9156,1320.0,570.0,False,True,True,True,True,False,True,True,True,154,69898,106068821,53764786,False,44.2627,-76.5745,1320.0,570.0,Midland & Princess,K7P2X8,2965,1320.0,570.0,154,1080.0,660.0,midland princess 1089 avenue kingston k7p2x8,(613) 384-2299,1320.0,570.0,1320.0,570.0,1320.0,570.0
100 North Cumberland Street,,Thunder Bay,(807) 344-7097,1260.0,600.0,False,False,True,False,True,True,True,False,True,155,34998,51915714,28676794,False,48.4378,-89.2166,1080.0,600.0,Cumberland & Water Street,P7A4L9,1551,1080.0,600.0,155,1080.0,660.0,cumberland water street 100 north thunder bay p7a4l9,(807) 345-1550,1080.0,600.0,1080.0,600.0,1080.0,600.0
236 Guelph St. Unit B,Delrex Market Centre,Georgetown,(905) 877-6289,1260.0,540.0,True,False,True,True,True,True,True,True,True,156,53294,92882682,41124035,False,43.6498,-79.9012,1260.0,540.0,Guelph & Mountainview,L7G4B1,2826,1260.0,540.0,156,1080.0,660.0,guelph mountainview 236 st unit b delrex market centre georgetown l7g4b1,(905) 877-2721,1260.0,540.0,1260.0,540.0,1260.0,540.0
1 Dawson Street,P.O. Box 223,Gore Bay,(705) 282-2320,1080.0,600.0,True,False,True,False,True,False,False,False,True,157,12598,18757457,14636683,False,45.9183,-82.4649,1080.0,600.0,Meredith & Dawson Street,P0P1H0,699,1080.0,600.0,157,1080.0,660.0,meredith dawson street 1 po box 223 gore bay p0p1h0,(705) 282-2320,1080.0,600.0,1080.0,600.0,1080.0,600.0
17 Manitowaning Road,P.O. Box 668,Little Current,(705) 368-2483,1080.0,600.0,False,False,True,False,True,False,False,False,True,158,17159,24698213,14510525,False,45.9793,-81.9256,1080.0,600.0,Hwy. 6 & Manitowaning Road,P0P1K0,975,1080.0,600.0,158,1080.0,660.0,hwy 6 manitowaning road 17 po box 668 little current p0p1k0,(705) 368-2483,1080.0,600.0,1080.0,600.0,1080.0,600.0
287 Highway 124 North,P.O. Box 218,South River,(705) 386-2541,1080.0,600.0,False,False,True,False,True,True,False,True,True,159,7303,11040551,6469462,False,45.837,-79.3767,,,Hwy 124 & Ottawa Street,P0A1X0,600,1080.0,600.0,159,1080.0,660.0,hwy 124 ottawa street 287 highway north po box 218 south river p0a1x0,(705) 386-2541,1080.0,600.0,1080.0,600.0,1080.0,600.0
1 Talbot Street West,,Cayuga,(905) 772-2038,1200.0,600.0,True,False,True,False,True,False,True,False,True,160,15074,22430216,21836470,False,42.95,-79.8563,1080.0,600.0,Hwy. 54 & 3,N0A1E0,865,1080.0,600.0,160,1080.0,660.0,hwy 54 3 1 talbot street west cayuga n0a1e0,(905) 772-3371,1080.0,600.0,1080.0,600.0,1080.0,600.0
188 Lindsley Street West,P.O. Box 638,Dresden,(519) 683-1039,1260.0,600.0,True,False,True,False,True,False,True,False,True,161,15597,21092352,21700297,False,42.5921,-82.1805,1080.0,600.0,Hwy. 21 & Lindsley Street,N0P1M0,964,1080.0,600.0,161,1080.0,660.0,hwy 21 lindsley street 188 west po box 638 dresden n0p1m0,(519) 683-4472,1080.0,600.0,1080.0,600.0,1080.0,600.0
423 Hwy. 11,P.O. Box 69,Matheson,(705) 273-2833,1200.0,600.0,True,True,True,False,True,False,False,False,True,162,7504,12082943,10415817,False,48.5323,-80.4626,1080.0,600.0,Hwy. 11 & Burton Road,P0K1N0,641,1080.0,600.0,162,,,hwy 11 burton road 423 po box 69 matheson p0k1n0,(705) 273-2833,1080.0,600.0,1080.0,600.0,1080.0,600.0
3111 Danforth Avenue,,Scarborough,(416) 699-9608,1320.0,600.0,False,True,True,False,True,False,True,True,True,163,55321,77809528,42759761,False,43.6911,-79.2859,1320.0,600.0,Danforth & Victoria Park,M1L1A9,2111,1320.0,600.0,163,1080.0,660.0,danforth victoria park 3111 avenue toronto scarborough toronto-scarborough torontoscarborough m1l1a9,(416) 699-7003,1320.0,600.0,1320.0,600.0,1320.0,600.0
65 Wicksteed Avenue,,Toronto,(416) 425-6151,1260.0,540.0,True,True,True,True,True,False,True,True,True,164,82248,186055205,62347208,False,43.7097,-79.36,1260.0,540.0,Eglinton & Laird,M4G4K1,4109,1260.0,540.0,164,1080.0,660.0,eglinton laird 65 wicksteed avenue toronto central toronto-central torontocentral m4g4k1,(416) 425-6282,1260.0,540.0,1260.0,540.0,1260.0,540.0
76 Mall Road,,Hamilton,(905) 387-5190,1260.0,600.0,False,True,True,False,True,True,True,True,True,165,31103,46474628,25900669,False,43.221,-79.8615,1260.0,600.0,Mohawk & Upper Wentworth,L8V4X6,1438,1260.0,600.0,165,1080.0,660.0,mohawk upper wentworth 76 mall road hamilton l8v4x6,(905) 387-0865,1260.0,600.0,1260.0,600.0,1260.0,600.0
39 Arthur Avenue,Southdale Plaza,Essex,(519) 776-4580,1260.0,600.0,False,False,True,False,True,False,True,False,False,166,21853,32859361,17799420,False,42.174,-82.8202,1080.0,600.0,Arthur & Talbot Street,N8M2N1,1255,1080.0,600.0,166,1080.0,660.0,arthur talbot street 39 avenue southdale plaza essex n8m2n1,(519) 776-8102,1080.0,600.0,1080.0,600.0,1080.0,600.0
905 Princess Street,,Kingston,(613) 548-4093,1320.0,570.0,False,True,True,False,True,False,True,False,True,167,48655,75518192,42086899,False,44.2409,-76.5105,1320.0,570.0,Princess & Concession,K7L1G7,1846,1320.0,570.0,167,1080.0,660.0,princess concession 905 street kingston k7l1g7,(613) 548-8659,1320.0,570.0,1320.0,570.0,1320.0,570.0
"510 Riddell Road,",Unit B,Orangeville,(519) 941-5811,1260.0,570.0,False,False,True,True,True,False,True,True,True,168,33867,53147970,25755265,False,43.9038,-80.1196,1260.0,570.0,Riddell & Centennial,L9W5L1,2160,1260.0,570.0,168,1080.0,660.0,riddell centennial 510 road unit b orangeville l9w5l1,(519) 941-5800,1260.0,570.0,1260.0,570.0,1260.0,570.0
68 Charles Street West,Ingersoll Plaza,Ingersoll,(519) 485-0479,1260.0,600.0,False,False,True,False,True,True,False,False,True,169,17339,25883728,13345591,False,43.0386,-80.8861,1080.0,600.0,Thames & Charles Street,N5C2L6,1182,1080.0,600.0,169,1080.0,660.0,thames charles street 68 west ingersoll plaza n5c2l6,(519) 485-3401,1080.0,600.0,1080.0,600.0,1080.0,600.0
116 Main Street East,,Atikokan,(807) 597-6968,1080.0,600.0,False,False,False,False,True,False,False,True,True,170,11705,17515118,9322559,False,48.7578,-91.6206,,,Main & Burns,P0T1C0,838,1080.0,600.0,170,,,main burns 116 street east atikokan p0t1c0,(807) 597-2095,1080.0,600.0,1080.0,600.0,1080.0,600.0
170 Sandalwood Parkway E.,Heart Lake Town Centre,Brampton,(905) 846-7316,1320.0,570.0,False,True,True,True,True,False,True,True,True,171,62517,112838538,49211273,False,43.7267,-79.7977,1320.0,570.0,Sandalwood & Kennedy,L6Z1Y5,3215,1320.0,570.0,171,1080.0,660.0,sandalwood kennedy 170 parkway e heart lake town centre brampton l6z1y5,(905) 846-4373,1320.0,570.0,1320.0,570.0,1320.0,570.0
109 Louisa Street,P.O. Box 122,Thedford,(519) 296-4982,1200.0,600.0,False,False,True,False,True,False,False,False,True,172,6818,9887021,5479860,False,43.1641,-81.8532,1080.0,600.0,Louisa & Main Street,N0M2N0,650,1080.0,600.0,172,,,louisa main street 109 po box 122 thedford n0m2n0,(519) 296-4982,1080.0,600.0,1080.0,600.0,,
7 Simcoe Plaza,P.O. Box 340,Terrace Bay,(807) 825-3223,1080.0,600.0,True,True,True,False,True,False,False,False,True,173,9241,13873360,10969602,False,48.7825,-87.1028,,,Hwy. 17 North,P0T2W0,591,1080.0,600.0,173,1080.0,660.0,hwy 17 north 7 simcoe plaza po box 340 terrace bay p0t2w0,(807) 825-3223,1080.0,600.0,1080.0,600.0,1080.0,600.0
16 Bridge Street E,P.O. Box 268,Tweed,(613) 478-3925,1200.0,570.0,False,False,True,False,True,False,True,False,True,174,14763,22019832,12284041,False,44.4799,-77.3141,1080.0,570.0,Victoria Street & Bridge Street,K0K3J0,871,1080.0,570.0,174,1080.0,660.0,victoria street bridge 16 e po box 268 tweed k0k3j0,(613) 478-2716,1080.0,570.0,1080.0,570.0,1080.0,570.0
201 Mississaga Street East,,Orillia,(705) 326-9915,1080.0,600.0,True,False,True,False,True,False,True,True,True,175,30125,49300119,27399003,False,44.6106,-79.4136,1080.0,600.0,Front & Mississaga Street,L3V1W1,1770,1080.0,600.0,175,1080.0,660.0,front mississaga street 201 east orillia l3v1w1,(705) 326-6591,1080.0,600.0,1080.0,600.0,1080.0,600.0
23 Forsyth Street,,Marmora,(613) 472-6934,1080.0,570.0,False,False,False,False,True,False,True,False,True,176,12814,16105065,10910129,False,44.4833,-77.6828,1080.0,570.0,Hwy. 7 & 14,K0K2M0,556,1080.0,570.0,176,1080.0,660.0,hwy 7 14 23 forsyth street marmora k0k2m0,(613) 472-2745,1080.0,570.0,1080.0,570.0,1080.0,570.0
37 Front Street South,P.O. Box 460,Campbellford,(705) 653-3299,1200.0,570.0,False,False,True,False,True,False,False,True,True,178,15486,24311433,13047264,False,44.307,-77.7978,1080.0,570.0,Bridge Street & Front Street,K0L1L0,957,1080.0,570.0,178,1080.0,660.0,bridge street front 37 south po box 460 campbellford k0l1l0,(705) 653-3000,1080.0,570.0,1080.0,570.0,1080.0,570.0
1011 Upper Middle Road East,Upper Oakville Shopping Centre,Oakville,(905) 849-5921,1260.0,600.0,False,False,True,True,True,True,True,True,True,179,38639,68001661,31536866,False,43.4823,-79.6946,1260.0,600.0,Upper Middle & 8Th Line,L6H4L2,2135,1260.0,600.0,179,1080.0,660.0,upper middle 8th line 1011 road east oakville shopping centre l6h4l2,(905) 849-9934,1260.0,600.0,1260.0,600.0,1260.0,600.0
222 Main Street,P.O. Box 60,Beardmore,(807) 875-2090,1080.0,600.0,False,True,True,False,True,False,False,False,False,180,6259,9520004,7384277,False,49.6021,-87.9593,,,Hwy. 11 & Main Street,P0T1G0,386,1080.0,600.0,180,,,hwy 11 main street 222 po box 60 beardmore p0t1g0,(807) 875-2090,1080.0,600.0,1080.0,600.0,1080.0,600.0
249 James Street,,Delhi,(519) 582-2610,1200.0,600.0,False,False,True,False,True,False,True,False,True,181,14365,24700607,13488785,False,42.8548,-80.4935,1080.0,600.0,James & Hwy. 3,N4B2B2,947,1080.0,600.0,181,1080.0,660.0,james hwy 3 249 street delhi n4b2b2,(519) 582-2610,1080.0,600.0,1080.0,600.0,1080.0,600.0
200 Lakeshore Road East,,Mississauga,(905) 278-8760,1260.0,600.0,False,True,True,False,True,True,True,True,True,182,35936,57932978,29223586,False,43.5577,-79.5795,1260.0,600.0,Lakeshore & Hwy 10,L5G1G3,1756,1260.0,600.0,182,1080.0,660.0,lakeshore hwy 10 200 road east mississauga l5g1g3,(905) 278-7931,1260.0,600.0,1260.0,600.0,1260.0,600.0
27 George Street North,,Brampton,(905) 451-5401,1260.0,570.0,False,True,True,False,True,True,True,False,True,183,40509,56445510,33233526,False,43.6857,-79.7623,1260.0,570.0,Main & Queen,L6X1R3,1434,1260.0,570.0,183,1080.0,660.0,main queen 27 george street north brampton l6x1r3,(905) 451-3424,1260.0,570.0,1260.0,570.0,1260.0,570.0
20 Ganley Street,P.O. Box 325,Wawa,(705) 856-2744,1080.0,600.0,False,True,True,False,True,False,True,False,True,184,12719,18126489,10471532,False,47.9957,-84.7721,1080.0,600.0,Broadway Avenue & Ganley Street,P0S1K0,810,1080.0,600.0,184,1080.0,660.0,broadway avenue ganley street 20 po box 325 wawa p0s1k0,(705) 856-4470,1080.0,600.0,1080.0,600.0,1080.0,600.0
5995 Yonge Street,,North York,(416) 221-1683,1320.0,600.0,False,True,True,False,True,True,True,True,True,185,0,0,0,True,43.7889,-79.4174,,,Yonge & Wedgewood,M2M3V7,0,1320.0,600.0,185,,,yonge wedgewood 5995 street toronto north toronto-north torontonorth york m2m3v7,(416) 221-0858,1320.0,600.0,1320.0,600.0,1320.0,600.0
1618 Wilson Avenue,Sheridan Mall,North York,(416) 241-2935,1260.0,600.0,False,True,True,False,False,False,True,False,True,186,34188,42759152,26456275,False,43.7212,-79.5104,1260.0,600.0,Jane & Wilson,M3L1A3,1100,1260.0,600.0,186,1080.0,660.0,jane wilson 1618 avenue sheridan mall toronto north toronto-north torontonorth york m3l1a3,(416) 241-3018,1260.0,600.0,1260.0,600.0,1260.0,600.0
534 Bayfield Street,,Barrie,(705) 722-0854,1320.0,600.0,True,False,True,True,True,True,True,True,True,187,98725,179130893,76173666,False,44.4145,-79.7132,1320.0,600.0,Bayfield & Hanmer,L4M5A2,4260,1320.0,600.0,187,1080.0,660.0,bayfield hanmer 534 street barrie l4m5a2,(705) 722-1046,1320.0,600.0,1320.0,600.0,1320.0,600.0
111 Gilbert Street East,,Whitby,(905) 668-9391,1260.0,570.0,False,False,True,False,True,False,True,True,True,188,37555,57381894,32380758,False,43.8768,-78.9399,1260.0,570.0,Brock & Dundas,L1N1R1,1715,1260.0,570.0,188,1080.0,660.0,brock dundas 111 gilbert street east whitby l1n1r1,(905) 668-3241,1260.0,570.0,1260.0,570.0,1260.0,570.0
138 Highway 11 East,P.O. Box 10,Smooth Rock Falls,(705) 338-2912,1080.0,600.0,True,True,True,False,True,False,False,False,True,189,5304,8566854,6705817,False,49.275,-81.6255,,,Hwy. 11 & Main Avenue,P0L2B0,480,1080.0,600.0,189,,,hwy 11 main avenue 138 highway east po box 10 smooth rock falls p0l2b0,(705) 338-2912,1080.0,600.0,1080.0,600.0,1080.0,600.0
1601 Main Street East,Traffic Circle,Hamilton,(905) 549-5922,1260.0,600.0,False,True,True,False,True,False,True,False,True,190,28748,43384397,23754409,False,43.2384,-79.8017,1200.0,600.0,Main at Traffic Circle,L8H1C4,1474,1260.0,600.0,190,1080.0,660.0,main at traffic circle 1601 street east hamilton l8h1c4,(905) 549-4647,1260.0,600.0,1200.0,600.0,1200.0,600.0
1979 Salem Road North,,Ajax,(905) 427-2997,1260.0,570.0,False,False,False,True,False,False,False,False,False,191,44860,79467487,37315061,False,43.8971,-79.0283,1260.0,570.0,Salem & Taunton,L1T0J9,2859,1260.0,570.0,191,1080.0,660.0,salem taunton 1979 road north ajax l1t0j9,(905) 427-2920,1260.0,570.0,1260.0,570.0,1260.0,570.0
85 Wellington Road,,London,(519) 433-4097,1260.0,600.0,False,True,True,False,True,False,True,False,True,192,29733,45142464,25379862,False,42.9713,-81.2375,1260.0,600.0,Wellington & Grand,N6C4M7,1347,1260.0,600.0,192,1080.0,660.0,wellington grand 85 road london n6c4m7,(519) 433-3479,1260.0,600.0,1260.0,600.0,1260.0,600.0
337 Notre Dame Street,"P.O. Box 280, Belle River Plaza",Belle River,(519) 728-1552,1260.0,600.0,False,True,True,False,True,False,True,False,True,193,14965,26035852,13217398,False,42.2931,-82.6993,1080.0,600.0,Notre Dame Street & 11Th Street,N0R1A0,1028,1080.0,600.0,193,1080.0,660.0,notre dame street 11th 337 po box 280 belle river plaza n0r1a0,(519) 728-1550,1080.0,600.0,1080.0,600.0,1080.0,600.0
10 Shaw Street,,Elmvale,(705) 322-2771,1200.0,600.0,False,False,True,False,False,False,False,False,True,194,13286,19644872,11154181,False,44.5854,-79.8648,1080.0,600.0,Shaw & Kerr Street,L0L1P0,992,1080.0,600.0,194,1080.0,660.0,shaw kerr street 10 elmvale l0l1p0,(705) 322-2771,1080.0,600.0,1080.0,600.0,1080.0,600.0
1900 Eglinton Avenue East,,Scarborough,(416) 755-3932,1320.0,600.0,True,True,True,True,False,False,True,True,True,195,56823,105606613,43307007,False,43.7295,-79.2924,1320.0,600.0,Eglinton & Warden,M1L2L9,2961,1320.0,570.0,195,1080.0,660.0,eglinton warden 1900 avenue east toronto scarborough toronto-scarborough torontoscarborough m1l2l9,(416) 755-6751,1320.0,600.0,1320.0,600.0,1320.0,600.0
"49 Main Street East, Building a",P.O. Box 370,Grand Bend,(519) 238-8196,1260.0,600.0,True,False,True,False,True,True,False,True,True,196,39539,55535362,31061666,False,43.3064,-81.7624,1080.0,600.0,Hwy 81 & Hwy 21,N0M1T0,2435,1080.0,600.0,196,1080.0,660.0,hwy 81 21 49 main street east building a po box 370 grand bend n0m1t0,(519) 238-2191,1080.0,600.0,1080.0,600.0,1080.0,600.0
47 Champlain Avenue,P.O. Box 219,Deep River,(613) 584-2290,1200.0,570.0,False,False,True,False,True,True,False,True,True,197,19442,29676328,15685530,False,46.1004,-77.4885,1080.0,570.0,Champlain Avenue & Deep River,K0J1P0,1413,1080.0,570.0,197,1080.0,660.0,champlain avenue deep river 47 po box 219 k0j1p0,(613) 584-2290,1080.0,570.0,1080.0,570.0,1080.0,570.0
4525 Kingston Road,,Scarborough,(416) 282-2413,1380.0,540.0,True,True,True,True,True,False,True,True,True,198,50387,87016301,38852399,False,43.7715,-79.1845,1320.0,540.0,Kingston & Morningside,M1E2P1,2861,1380.0,540.0,198,1080.0,660.0,kingston morningside 4525 road toronto scarborough toronto-scarborough torontoscarborough m1e2p1,(416) 282-2034,1320.0,540.0,1320.0,540.0,1320.0,540.0
200 Broadway Street,Town Centre,Tillsonburg,(519) 842-6149,1260.0,600.0,False,False,True,False,True,True,True,False,True,199,26032,41835093,21574813,False,42.8629,-80.7293,1080.0,600.0,Broadway & Bridge,N4G5A7,1621,1080.0,600.0,199,1080.0,660.0,broadway bridge 200 street town centre tillsonburg n4g5a7,(519) 842-4191,1200.0,600.0,1080.0,600.0,1080.0,600.0
348 Clarke Road,Argyle Mall,London,(519) 452-1870,1260.0,600.0,False,True,True,False,True,True,True,True,True,200,53885,76843326,46174417,False,43.0032,-81.1745,1260.0,600.0,Clarke & Dundas,N5W6G4,2515,1260.0,600.0,200,1080.0,660.0,clarke dundas 348 road argyle mall london n5w6g4,(519) 451-0220,1260.0,600.0,1260.0,600.0,1260.0,600.0
105 Bayly Street West,Baywood Centre,Ajax,(905) 683-4705,1260.0,570.0,False,False,True,False,True,True,True,True,True,201,39456,55695915,31738825,False,43.842,-79.0223,1260.0,570.0,Bayly & Harwood,L1S7K7,2034,1260.0,570.0,201,1080.0,660.0,bayly harwood 105 street west baywood centre ajax l1s7k7,(905) 683-5370,1260.0,570.0,1260.0,570.0,1260.0,570.0
1142 Lakeshore Road,,Sarnia,(519) 542-4894,1200.0,600.0,False,False,True,False,True,True,True,True,True,202,25485,37664797,23684892,False,43.0151,-82.3657,1200.0,600.0,Lakeshore & Murphy Nw Corner,N7V2V8,1665,1080.0,600.0,202,1080.0,660.0,lakeshore murphy nw corner 1142 road sarnia n7v2v8,(519) 542-7410,1200.0,600.0,1200.0,600.0,1200.0,600.0
413 Elizabeth Street,Village Square,Burlington,(905) 634-6152,1260.0,600.0,False,False,True,False,True,False,True,True,True,203,17479,24862139,12910489,False,43.326,-79.7956,1080.0,600.0,Lakeshore and Elizabeth,L7R2L8,1060,1200.0,600.0,203,1080.0,660.0,lakeshore and elizabeth 413 street village square burlington l7r2l8,(905) 634-9023,1200.0,600.0,1080.0,600.0,1080.0,600.0
36 Fifth Avenue,P.O. Box 369,Hornepayne,(807) 868-2751,1080.0,600.0,True,True,True,False,True,False,False,False,True,204,5182,8834490,9270994,False,49.2164,-84.7765,,,Front St & Fifth Ave,P0M1Z0,460,1080.0,600.0,204,,,front st fifth ave 36 avenue po box 369 hornepayne p0m1z0,(807) 868-2092,1080.0,600.0,1080.0,600.0,1080.0,600.0
155 Toronto Street,P.O. Box 494,Markdale,(519) 986-3268,1200.0,600.0,False,False,True,False,True,False,False,False,True,205,15862,21467285,12972679,False,44.3217,-80.6521,1080.0,600.0,Hwy. 10 & Toronto Street,N0C1H0,1153,1080.0,600.0,205,1080.0,660.0,hwy 10 toronto street 155 po box 494 markdale n0c1h0,(519) 986-2500,1080.0,600.0,1080.0,600.0,1080.0,600.0
250 the East Mall,Cloverdale Mall,Etobicoke,(416) 233-9687,1260.0,570.0,False,True,True,True,True,True,True,True,True,207,47824,68614684,35508935,False,43.6313,-79.5537,1260.0,570.0,Dundas & Hwy 427,M9B3Y8,2423,1260.0,570.0,207,1080.0,660.0,dundas hwy 427 250 the east mall cloverdale toronto etobicoke toronto-etobicoke torontoetobicoke m9b3y8,(416) 233-6081,1260.0,570.0,1260.0,570.0,1260.0,570.0
16B Station Street,P.O. Box 340,Bancroft,(613) 332-2660,1200.0,570.0,False,False,True,False,True,True,False,True,True,208,15963,25959074,13520810,False,45.0595,-77.8567,1080.0,570.0,Hwy. 62 & Station Street,K0L1C0,1107,1080.0,570.0,208,1080.0,660.0,hwy 62 station street 16b po box 340 bancroft k0l1c0,(613) 332-2660,1080.0,570.0,1080.0,570.0,1080.0,570.0
36 Young Street,Alliston Mills Shopping Centre,Alliston,(705) 435-5431,1260.0,600.0,True,False,True,True,True,False,True,True,True,209,41840,61106568,33823306,False,44.1493,-79.8819,1260.0,600.0,Hwy. 89 & Young,L9R1P8,2439,1260.0,600.0,209,1080.0,660.0,hwy 89 young 36 street alliston mills shopping centre l9r1p8,(705) 435-7332,1260.0,600.0,1260.0,600.0,1260.0,600.0
781 Broadway Street,Unit #2,Kincardine,(519) 396-5317,1260.0,600.0,False,False,True,False,True,False,True,True,True,210,31072,48701149,26029236,False,44.1761,-81.615,1200.0,600.0,Hwy 9 and Hwy 21,N2Z2G1,2059,1260.0,600.0,210,1080.0,660.0,hwy 9 and 21 781 broadway street unit #2 kincardine n2z2g1,(519) 396-2923,1260.0,600.0,1200.0,600.0,1200.0,600.0
324 Colonnade Drive East #100,,Kemptville,(613) 258-7998,1260.0,570.0,True,False,True,True,True,False,False,True,True,211,46152,71776633,36645790,False,45.0303,-75.634,1260.0,570.0,Hwy 416 & Hwy 43,K0G1J0,2398,1260.0,570.0,211,1080.0,660.0,hwy 416 43 324 colonnade drive east #100 kemptville k0g1j0,(613) 258-3252,1260.0,570.0,1260.0,570.0,1260.0,570.0
222 Richmond Road,,Ottawa,(613) 729-8739,1320.0,570.0,False,True,True,True,True,False,True,True,True,212,60598,97624816,46548521,False,45.3941,-75.7489,1320.0,570.0,Richmond & Kirkwood,K1Z6W6,2957,1320.0,570.0,212,1080.0,660.0,richmond kirkwood 222 road ottawa k1z6w6,(613) 729-1735,1320.0,570.0,1320.0,570.0,1320.0,570.0
234 Mary Street,,Dutton,(519) 762-2202,1200.0,600.0,True,False,True,False,True,False,True,False,True,213,10280,15308447,14319695,False,42.6632,-81.5031,1080.0,600.0,Main & Mary Street,N0L1J0,750,1080.0,600.0,213,1080.0,660.0,main mary street 234 dutton n0l1j0,(519) 762-2200,1080.0,600.0,1080.0,600.0,1080.0,600.0
125 the Queensway,Bldg C,Etobicoke,(416) 259-3186,1260.0,600.0,False,True,False,True,False,False,True,True,True,214,44611,76926615,34392205,False,43.6299,-79.4819,1260.0,600.0,Queensway & Park Lawn,M8Y1H6,2308,1260.0,600.0,214,1080.0,660.0,queensway park lawn 125 the bldg c toronto etobicoke toronto-etobicoke torontoetobicoke m8y1h6,(416) 259-6476,1260.0,600.0,1260.0,600.0,1260.0,600.0
70 Carroll Street East,Unit A1,Strathroy,(519) 245-3702,1260.0,600.0,False,False,True,False,True,False,True,True,True,216,24691,38312301,21013473,False,42.9471,-81.6093,1080.0,600.0,Carroll & Caradoc,N7G4G2,1480,1260.0,600.0,216,1080.0,660.0,carroll caradoc 70 street east unit a1 strathroy n7g4g2,(519) 245-1371,1200.0,600.0,1080.0,600.0,1080.0,600.0
2 Cooper Street,Queen's Quay,Toronto,(416) 864-6863,1320.0,540.0,False,True,True,True,True,True,True,True,True,217,158728,407995237,118510179,False,43.643,-79.3723,1320.0,540.0,Queens Quay & Yonge,M5E0B8,4654,1320.0,540.0,217,1080.0,660.0,queens quay yonge 2 cooper street queen's toronto central toronto-central torontocentral m5e0b8,(416) 864-6777,1320.0,540.0,1320.0,540.0,1320.0,540.0
1077 North Service Road,Applewood Village Plaza,Mississauga,(905) 897-5613,1260.0,600.0,False,True,True,False,True,True,True,False,True,218,54323,73558668,42123172,False,43.5906,-79.5775,1260.0,600.0,N Service & Dixie,L4Y1A6,2212,1260.0,600.0,218,1080.0,660.0,n service dixie 1077 north road applewood village plaza mississauga l4y1a6,(905) 897-1092,1260.0,600.0,1260.0,600.0,1260.0,600.0
3132 Hwy 169,P.O. Box 379,Bala,(705) 762-1188,1080.0,600.0,False,False,True,False,True,True,False,True,True,219,23594,39614767,18744409,False,45.0157,-79.6142,1080.0,600.0,Hwy 169 & Gordon St,P0C1A0,1339,1080.0,600.0,219,1080.0,660.0,hwy 169 gordon st 3132 po box 379 bala p0c1a0,(705) 762-3220,1080.0,600.0,1080.0,600.0,1080.0,600.0
66 Huron Walk,P.O. Box 250,Manitouwadge,(807) 826-3541,1080.0,600.0,True,True,True,False,True,False,False,False,True,220,9171,15738694,14252470,False,49.1272,-85.827,1080.0,600.0,Huron & Barber Walk,P0T2C0,633,1080.0,600.0,220,,,huron barber walk 66 po box 250 manitouwadge p0t2c0,(807) 826-3541,1080.0,600.0,1080.0,600.0,1080.0,600.0
1535 Hwy 7A,,Port Perry,(905) 985-7455,1260.0,570.0,True,False,True,False,True,False,False,True,True,221,44037,69442321,36894675,False,44.0951,-78.9625,1260.0,570.0,Scugog Line 6 & Hwy 7A,L9L1B5,2432,1260.0,570.0,221,1080.0,660.0,scugog line 6 hwy 7a 1535 port perry l9l1b5,(905) 985-2392,1260.0,570.0,1260.0,570.0,1260.0,570.0
37 King Street East,P.O. Box 130,Bobcaygeon,(705) 738-2591,1200.0,570.0,False,False,True,False,False,False,False,True,True,222,21466,29411363,17634955,False,44.536,-78.5414,1080.0,570.0,King Street & Hwy. 36,K0M1A0,1273,1080.0,570.0,222,1080.0,660.0,king street hwy 36 37 east po box 130 bobcaygeon k0m1a0,(705) 738-2591,1080.0,570.0,1080.0,570.0,1080.0,570.0
230 Highland Street,P.O. Box 479,Haliburton,(705) 457-2536,1080.0,570.0,False,False,True,False,True,False,True,True,True,223,21732,37078703,17662812,False,45.0464,-78.5076,1080.0,570.0,Hwy. 121 & 118,K0M1S0,1413,1080.0,570.0,223,1080.0,660.0,hwy 121 118 230 highland street po box 479 haliburton k0m1s0,(705) 457-2631,1080.0,570.0,1080.0,570.0,1080.0,570.0
336 Bay Street,,Beaverton,(705) 426-7121,1260.0,570.0,True,False,True,False,True,False,True,False,True,224,19956,27740806,16252359,False,44.429,-79.1554,1080.0,570.0,Bay & Mill,L0K1A0,1337,1080.0,570.0,224,1080.0,660.0,bay mill 336 street beaverton l0k1a0,(705) 426-7373,1080.0,570.0,1080.0,570.0,1080.0,570.0
11 Charles Walk,,Elliot Lake,(705) 848-7391,1200.0,600.0,False,True,True,False,True,True,True,True,True,225,13129,22171756,11259985,False,46.3863,-82.648,1080.0,600.0,Hillside & Ontario Street,P5A2A2,1058,1080.0,600.0,225,1080.0,660.0,hillside ontario street 11 charles walk elliot lake p5a2a2,(705) 848-7391,1080.0,600.0,1080.0,600.0,1080.0,600.0
17555 Yonge Street,,Newmarket,(905) 895-5210,1320.0,600.0,False,False,True,True,True,False,True,True,True,226,72770,122739482,57133694,False,44.0557,-79.4795,1320.0,600.0,Yonge & Davis,L3Y5H6,3506,1320.0,600.0,226,1080.0,660.0,yonge davis 17555 street newmarket l3y5h6,(905) 895-6341,1320.0,600.0,1320.0,600.0,1320.0,600.0
930 Jones Road,,Midland,(705) 526-4688,1260.0,600.0,True,False,True,True,True,False,True,True,True,227,38971,63170675,34665280,False,44.7291,-79.8718,1200.0,600.0,King Street & Heritage Drive,L4R4K3,2335,1200.0,600.0,227,1080.0,660.0,king street heritage drive 930 jones road midland l4r4k3,(705) 526-6911,1200.0,600.0,1200.0,600.0,1200.0,600.0
55 Ellesmere Road,,Scarborough,(416) 447-3624,1320.0,600.0,True,True,True,False,True,True,True,True,True,228,55873,85778285,43461501,False,43.7564,-79.3141,1320.0,600.0,Ellesmere & Victoria Park,M1R4B7,2736,1320.0,600.0,228,1080.0,660.0,ellesmere victoria park 55 road toronto scarborough toronto-scarborough torontoscarborough m1r4b7,(416) 447-1941,1320.0,600.0,1320.0,600.0,1320.0,600.0
97 Parkside Dr West,,Fergus,(519) 843-7558,1260.0,600.0,True,False,True,False,True,False,True,True,True,229,41871,53901962,35472452,False,43.7113,-80.3877,1200.0,600.0,Parkside & St. David,N1M3M5,2098,1200.0,600.0,229,1080.0,660.0,parkside st david 97 dr west fergus n1m3m5,(519) 843-1740,1260.0,600.0,1200.0,600.0,1200.0,600.0
202 10Th Street,P.O. Box 79,Keewatin,(807) 547-2118,1080.0,600.0,True,False,True,False,False,False,True,True,True,230,15671,24137910,18555268,False,49.7619,-94.5541,1080.0,600.0,Front & Tenth Street,P0X1C0,891,1080.0,600.0,230,1080.0,660.0,front tenth street 202 10th po box 79 keewatin p0x1c0,(807) 547-2898,1080.0,600.0,1080.0,600.0,1080.0,600.0
"30 Ottawa Street,",P.O. Box 239,Havelock,(705) 778-3537,1200.0,570.0,False,False,True,False,False,False,True,False,True,231,13007,19132843,10151353,False,44.4334,-77.8901,1080.0,570.0,Hwy. 7 & 30,K0L1Z0,921,1080.0,570.0,231,1080.0,660.0,hwy 7 30 ottawa street po box 239 havelock k0l1z0,(705) 778-2141,1080.0,570.0,1080.0,570.0,1080.0,570.0
10 Commercial Drive,P.O. Box 9,Burk's Falls,(705) 382-0708,1200.0,600.0,True,False,True,False,True,False,False,True,True,232,14238,22386640,17327163,False,45.6099,-79.4021,1080.0,600.0,Hwy 520 & Hwy 11,P0A1C0,1076,1080.0,600.0,232,1080.0,660.0,hwy 520 11 10 commercial drive po box 9 burk's burks falls p0a1c0,(705) 382-2928,1080.0,600.0,1080.0,600.0,1080.0,600.0
657 Upper James Street,Unit 106,Hamilton,(905) 383-3241,1320.0,570.0,True,True,True,True,True,False,True,True,True,233,49453,83129038,40506715,False,43.2352,-79.8766,1320.0,570.0,Upper James & Fennell,L9C5R8,2589,1320.0,570.0,233,1080.0,660.0,upper james fennell 657 street unit 106 hamilton l9c5r8,(905) 383-9344,1320.0,570.0,1320.0,570.0,1320.0,570.0
211 Lloyd Manor Road,,Etobicoke,(416) 244-5523,1260.0,600.0,True,True,True,True,False,False,True,True,True,234,35060,48835268,27514476,False,43.6754,-79.5571,1260.0,600.0,Eglinton & Kipling,M9B6H6,1856,1260.0,600.0,234,1080.0,660.0,eglinton kipling 211 lloyd manor road toronto etobicoke toronto-etobicoke torontoetobicoke m9b6h6,(416) 244-1179,1260.0,600.0,1260.0,600.0,1260.0,600.0
601 Main Street,P.O. Box 127,Powassan,(705) 724-6423,1080.0,600.0,False,False,True,False,False,False,False,True,True,235,9031,13336399,7703445,False,46.0767,-79.3598,1080.0,600.0,Hwy 11 & Hwy 534,P0H1Z0,761,1080.0,600.0,235,1080.0,660.0,hwy 11 534 601 main street po box 127 powassan p0h1z0,(705) 724-2914,1080.0,600.0,1080.0,600.0,1080.0,600.0
3468 Errington Avenue,P.O. Box 338,Chelmsford,(705) 855-4964,1260.0,600.0,True,True,True,False,True,False,True,False,True,236,20899,29197319,18627347,False,46.5792,-81.198,1080.0,600.0,"Errington & HWY.144,. 1 / 2 Mile",P0M1L0,1062,1080.0,600.0,236,1080.0,660.0,errington hwy144 1 2 mile 3468 avenue po box 338 chelmsford p0m1l0,(705) 855-4964,1080.0,600.0,1080.0,600.0,1080.0,600.0
11 Winchester Road East,,Brooklin,(905) 655-7310,1260.0,570.0,True,False,False,False,False,False,False,True,True,237,37381,53446039,30852128,False,43.9534,-78.9604,1260.0,570.0,Winchester & Baldwin,L1M2J7,2171,1260.0,570.0,237,1080.0,660.0,winchester baldwin 11 road east brooklin l1m2j7,(905) 655-7300,1260.0,570.0,1260.0,570.0,1260.0,570.0
117 Market Street East,,Port Dover,(519) 583-2851,1260.0,600.0,False,False,True,False,True,True,False,True,True,238,17312,26781842,13859468,False,42.7877,-80.2013,1080.0,600.0,Hwy. 6 & Market,N0A1N0,1273,1080.0,600.0,238,1080.0,660.0,hwy 6 market 117 street east port dover n0a1n0,(519) 583-1900,1080.0,600.0,1080.0,600.0,1080.0,600.0
30 Wellington Street,,Aylmer,(519) 773-7192,1260.0,600.0,False,False,True,False,True,False,False,False,True,239,17041,28161675,16167598,False,42.7717,-80.9873,1080.0,600.0,Wellington & Hwy #3,N5H2K2,1005,1080.0,600.0,239,1080.0,660.0,wellington hwy #3 30 street aylmer n5h2k2,(519) 773-7122,1080.0,600.0,1080.0,600.0,1080.0,600.0
3 Centre St.,P.O. Box 188,Port Rowan,(519) 586-2151,1080.0,600.0,False,False,True,False,True,False,False,False,True,240,9986,14404185,7712990,False,42.6254,-80.451,1080.0,600.0,Main & Centre Street,N0E1M0,770,1080.0,600.0,240,1080.0,660.0,main centre street 3 st po box 188 port rowan n0e1m0,(519) 586-2151,1080.0,600.0,1080.0,600.0,1080.0,600.0
3 Wildflower Avenue,P.O. Box 117,Temagami,(705) 569-3410,1080.0,600.0,True,True,True,False,True,False,False,True,True,241,6969,10838705,7785309,False,47.064,-79.7898,,,Hwy. 11 & Wildflower Street,P0H2H0,580,1080.0,600.0,241,,,hwy 11 wildflower street 3 avenue po box 117 temagami p0h2h0,(705) 569-3410,1080.0,600.0,1080.0,600.0,1080.0,600.0
510 Brimley Road,,Scarborough,(416) 261-4165,1320.0,600.0,False,True,True,False,True,False,True,False,False,242,43298,70678192,34934226,False,43.7356,-79.2482,1320.0,600.0,Brimley & Eglinton,M1J1A7,2051,1320.0,570.0,242,1080.0,660.0,brimley eglinton 510 road toronto scarborough toronto-scarborough torontoscarborough m1j1a7,(416) 261-6362,1320.0,600.0,1320.0,600.0,1320.0,600.0
1980 Bank Street,,Ottawa,(613) 523-5407,1320.0,570.0,False,True,True,True,True,True,True,True,True,243,84067,149439883,61960244,False,45.3666,-75.6614,1320.0,570.0,Bank & Walkley,K1V0E8,3598,1320.0,570.0,243,1080.0,660.0,bank walkley 1980 street ottawa k1v0e8,(613) 523-7763,1320.0,570.0,1320.0,570.0,1320.0,570.0
1900 Mosley Street,Unit #3,Wasaga Beach,(705) 429-7310,1260.0,600.0,True,False,True,False,True,True,True,True,False,244,35935,56070748,30613618,False,44.4751,-80.0749,1260.0,600.0,Mosley & 45Th,L9Z1Z3,2390,1260.0,600.0,244,1080.0,660.0,mosley 45th 1900 street unit #3 wasaga beach l9z1z3,(705) 429-7300,1260.0,600.0,1260.0,600.0,1260.0,600.0
116 Forestry Road,P.O. Box 358,Longlac,(807) 876-2275,1080.0,600.0,True,True,True,False,True,False,False,False,True,245,8622,14368306,11697058,False,49.7809,-86.5352,1080.0,600.0,Hwy. 11 & Forestry Road,P0T2A0,586,1080.0,600.0,245,1080.0,660.0,hwy 11 forestry road 116 po box 358 longlac p0t2a0,(807) 876-2275,1080.0,600.0,1080.0,600.0,1080.0,600.0
692 Lite Street,,Point Edward,(519) 332-8712,1260.0,600.0,False,False,True,False,True,False,True,False,True,246,15749,26846041,14115487,False,42.9912,-82.4064,1080.0,600.0,Lite & Louisa Street,N7V1A5,1177,1080.0,600.0,246,,,lite louisa street 692 point edward n7v1a5,(519) 332-8711,1080.0,600.0,1080.0,600.0,1080.0,600.0
11 Park Street,P.O. Box 484,Brighton,(613) 475-5824,1200.0,570.0,False,False,True,False,True,False,True,False,True,247,23958,34618216,20115909,False,44.0413,-77.7375,1080.0,570.0,Hwy 2 & Park,K0K1H0,1263,1080.0,570.0,247,1080.0,660.0,hwy 2 park 11 street po box 484 brighton k0k1h0,(613) 475-2712,1080.0,570.0,1080.0,570.0,1080.0,570.0
10375 Yonge Street North,,Richmond Hill,(905) 884-7323,1260.0,600.0,False,False,True,False,True,True,True,True,True,248,44621,79193544,34850435,False,43.8807,-79.4386,1260.0,600.0,Yonge Street & Crosby Ave,L4C3C2,2724,1260.0,600.0,248,1080.0,660.0,yonge street crosby ave 10375 north richmond hill l4c3c2,(905) 884-7321,1260.0,600.0,1260.0,600.0,1260.0,600.0
971 Fennell Avenue East,Fennell Square,Hamilton,(905) 385-5384,1320.0,570.0,False,True,True,False,True,True,True,True,True,249,37730,53594152,31475983,False,43.2286,-79.8371,1260.0,570.0,Upper Gage & Fennell,L8T1R1,1856,1320.0,570.0,249,1080.0,660.0,upper gage fennell 971 avenue east square hamilton l8t1r1,(905) 385-5383,1320.0,570.0,1260.0,570.0,1260.0,570.0
122 Hwy. 8,Stoney Creek Plaza,Stoney Creek,(905) 662-9748,1320.0,600.0,True,False,True,True,True,False,True,True,True,250,47681,85854786,38765859,False,43.223,-79.745,1260.0,600.0,Gray's Rd & Hwy. 8,L8G1C2,2667,1320.0,600.0,250,1080.0,660.0,gray's grays rd hwy 8 122 stoney creek plaza l8g1c2,(905) 662-6031,1260.0,600.0,1260.0,600.0,1260.0,600.0
426 High Street,P.O. Box 129,Mactier,(705) 375-2830,1080.0,600.0,True,False,True,False,True,False,True,True,True,251,13560,22153469,17564534,False,45.1341,-79.7698,1080.0,600.0,Hwy. 169 & 612,P0C1H0,1108,1080.0,600.0,251,1080.0,660.0,hwy 169 612 426 high street po box 129 mactier p0c1h0,(705) 375-2830,1080.0,600.0,1080.0,600.0,1080.0,600.0
343 Glendale Ave.,,St. Catharines,(905) 641-4672,1320.0,600.0,False,False,True,True,True,False,True,True,False,252,63697,102922987,52076715,False,43.1369,-79.2151,1320.0,600.0,Glendale & Merritt,L2T0A1,3184,1320.0,600.0,252,1080.0,660.0,glendale merritt 343 ave st catharines l2t0a1,(905) 641-1169,1320.0,600.0,1320.0,600.0,1320.0,600.0
195 the Donway West,,North York,(416) 447-0763,1260.0,600.0,False,True,True,True,False,False,True,True,True,253,56386,110600549,42392981,False,43.7363,-79.3461,1260.0,600.0,Lawrence & Don Mills,M3C0H6,3454,1260.0,600.0,253,1080.0,660.0,lawrence don mills 195 the donway west toronto north toronto-north torontonorth york m3c0h6,(416) 447-0491,1260.0,600.0,1260.0,600.0,1260.0,600.0
4 Centre Street,P.O. Box 268,Millbrook,(705) 932-2753,1200.0,570.0,True,False,True,False,False,False,False,False,True,254,15742,22840316,16730922,False,44.1521,-78.4486,1080.0,570.0,Tupper & King Street,L0A1G0,976,1080.0,570.0,254,1080.0,660.0,tupper king street 4 centre po box 268 millbrook l0a1g0,(705) 932-2753,1080.0,570.0,1080.0,570.0,1080.0,570.0
14 Main Street East,,Milton,(905) 878-3041,1260.0,570.0,False,True,True,False,True,True,True,True,True,255,36657,56824968,29051237,False,43.5087,-79.8874,1260.0,570.0,Main & Bronte Street,L9T1N3,2171,1260.0,570.0,255,1080.0,660.0,main bronte street 14 east milton l9t1n3,(905) 878-2631,1260.0,570.0,1260.0,570.0,1260.0,570.0
250 Imperial Street S.,P.O. Box 519,Massey,(705) 865-2033,1200.0,600.0,True,True,True,False,True,False,True,False,True,256,10824,14300876,12614257,False,46.212,-82.0771,1080.0,600.0,Hwy. 17 & Imperial N. & S.,P0P1P0,545,1080.0,600.0,256,1080.0,660.0,hwy 17 imperial n s 250 street po box 519 massey p0p1p0,(705) 865-2033,1080.0,600.0,1080.0,600.0,1080.0,600.0
Hwy. 71,P.O. Box 120,Sioux Narrows,(807) 226-5182,1080.0,600.0,False,False,True,False,False,False,False,False,False,257,8453,11868374,8889692,False,49.4101,-94.0968,,,Hwy 71 & Govt. Dock Rd.,P0X1N0,532,1080.0,600.0,257,,,hwy 71 govt dock rd po box 120 sioux narrows p0x1n0,(807) 226-5262,1080.0,600.0,1080.0,600.0,1080.0,600.0
13 Spragge & Queen Street,P.O. Box 99,Manitowaning,(705) 859-3292,1080.0,600.0,True,False,True,False,True,False,False,False,True,258,15326,19108477,20367122,False,45.7446,-81.8069,1080.0,600.0,Queen & Spragge,P0P1N0,700,1080.0,600.0,258,1080.0,660.0,queen spragge 13 street po box 99 manitowaning p0p1n0,(705) 859-3292,1080.0,600.0,1080.0,600.0,1080.0,600.0
48 Coldwater Road,P.O. Box 191,Coldwater,(705) 686-3841,1200.0,600.0,False,False,True,False,False,False,True,False,True,259,16674,23379146,13054963,False,44.7062,-79.6433,1080.0,600.0,Hwy 12 Sturgeon Bay Rd & Coldwater Rd,L0K1E0,919,1080.0,600.0,259,1080.0,660.0,hwy 12 sturgeon bay rd coldwater 48 road po box 191 l0k1e0,(705) 686-3300,1080.0,600.0,1080.0,600.0,1080.0,600.0
893 10Th Street,,Hanover,(519) 364-6481,1260.0,600.0,False,False,True,False,True,True,True,True,True,260,29079,46375597,25375621,False,44.1553,-81.0055,1200.0,600.0,10Th St & 22Nd Ave,N4N1S4,1727,1260.0,600.0,260,1080.0,660.0,10th st 22nd ave 893 street hanover n4n1s4,(519) 364-2980,1260.0,600.0,1200.0,600.0,1200.0,600.0
2 Nichols St,P.O. Box 340,Lakefield,(705) 652-8181,1200.0,570.0,False,False,True,False,False,False,False,True,True,261,21061,28329844,18189932,False,44.4212,-78.2704,1080.0,570.0,Nichols & Water,K0L2H0,1212,1080.0,570.0,261,1080.0,660.0,nichols water 2 st po box 340 lakefield k0l2h0,(705) 652-7031,1080.0,570.0,1080.0,570.0,1080.0,570.0
17 Plaza Drive,P.O. Box 158,Iroquois,(613) 652-4549,1260.0,570.0,True,True,True,False,False,False,False,False,True,262,12467,16729981,13444172,False,44.8495,-75.3161,1080.0,570.0,Heritage Hwy. 4 & 2,K0E1K0,754,1080.0,570.0,262,1080.0,660.0,heritage hwy 4 2 17 plaza drive po box 158 iroquois k0e1k0,(613) 652-4549,1080.0,570.0,1080.0,570.0,1080.0,570.0
2344 Highway #2,,Bowmanville,(905) 623-2870,1320.0,570.0,True,False,True,True,True,True,True,True,True,263,59283,99887296,50428709,False,43.9075,-78.7102,1320.0,570.0,Hwy 2 & Waverly Rd,L1C0K5,2949,1320.0,570.0,263,1080.0,660.0,hwy 2 waverly rd 2344 highway #2 bowmanville l1c0k5,(905) 623-2391,1320.0,570.0,1320.0,570.0,1320.0,570.0
196 Main Street,P.O. Box 239,Lucan,(519) 227-4919,1200.0,600.0,True,False,False,False,True,False,False,False,True,264,13819,19625735,14282515,False,43.189,-81.4054,1080.0,600.0,Main & Market Street,N0M2J0,836,1080.0,600.0,264,1080.0,660.0,main market street 196 po box 239 lucan n0m2j0,(519) 227-4279,1080.0,600.0,1080.0,600.0,1080.0,600.0
30 Mcewan Drive East,,Bolton,(905) 857-7922,1260.0,570.0,False,False,True,True,True,False,True,True,True,265,31807,54104661,26900563,False,43.8629,-79.7135,1260.0,570.0,Hwy. 50 & King Side Road,L7E2Y3,2079,1260.0,570.0,265,1080.0,660.0,hwy 50 king side road 30 mcewan drive east bolton l7e2y3,(905) 857-2620,1260.0,570.0,1260.0,570.0,1260.0,570.0
2 Renfrew Street,,Petawawa,(613) 687-4672,1200.0,570.0,False,False,True,False,True,True,False,False,True,266,31415,45471940,24992821,False,45.8867,-77.2582,1080.0,570.0,County Road 17 & Renfrew Stree,K8H2H3,1626,1080.0,570.0,266,1080.0,660.0,county road 17 renfrew stree 2 street petawawa k8h2h3,(613) 687-4672,1080.0,570.0,1080.0,570.0,1080.0,570.0
12 Elizabeth St. E.,,Creemore,(705) 466-3418,1200.0,600.0,True,False,True,False,False,False,False,False,True,267,12106,15292842,12928175,False,44.3256,-80.1038,1080.0,600.0,Elizabeth & Mill Street,L0M1G0,805,1080.0,600.0,267,1080.0,660.0,elizabeth mill street 12 st e creemore l0m1g0,(705) 466-2110,1080.0,600.0,1080.0,600.0,1080.0,600.0
309 Argyle Street South,,Caledonia,(905) 765-5439,1260.0,600.0,False,False,True,False,True,True,False,False,True,268,29465,42529621,25841242,False,43.064,-79.9601,1260.0,600.0,Hwy. 6 & Haddington Street,N3W1K7,1423,1260.0,600.0,268,1080.0,660.0,hwy 6 haddington street 309 argyle south caledonia n3w1k7,(905) 765-4577,1260.0,600.0,1260.0,600.0,1260.0,600.0
3441 Lawrence Avenue East,Cedarbrae Mall,Scarborough,(416) 431-0277,1260.0,600.0,False,True,True,False,True,True,True,True,False,269,39849,67751115,33070297,False,43.7579,-79.2326,1260.0,600.0,Markham & Lawrence,M1H1B3,2113,1260.0,600.0,269,1080.0,660.0,markham lawrence 3441 avenue east cedarbrae mall toronto scarborough toronto-scarborough torontoscarborough m1h1b3,(416) 431-0791,1260.0,600.0,1260.0,600.0,1260.0,600.0
520 Huron Road,Unit 2,Goderich,(519) 524-8860,1260.0,600.0,True,False,True,False,True,False,True,True,True,270,34792,52277150,29284071,False,43.7314,-81.6916,1200.0,600.0,Huron Road & Suncoast Dr E,N7A3X8,2149,1260.0,600.0,270,1080.0,660.0,huron road suncoast dr e 520 unit 2 goderich n7a3x8,(519) 524-9053,1260.0,600.0,1200.0,600.0,1200.0,600.0
16 Albert Street West,P.O. Box 600,Wingham,(519) 357-1694,1260.0,600.0,False,False,True,False,True,False,True,False,True,271,17276,22315159,13404601,False,43.8914,-81.3096,1080.0,600.0,Albert & Josephine,N0G2W0,932,1080.0,600.0,271,1080.0,660.0,albert josephine 16 street west po box 600 wingham n0g2w0,(519) 357-2120,1080.0,600.0,1080.0,600.0,1080.0,600.0
204 Elgin Street,P.O. 190,White River,(807) 822-2322,1080.0,600.0,True,True,True,False,False,False,False,False,True,272,5848,7982279,7788143,False,48.5904,-85.2811,,,Elgin & Superior Street,P0M3G0,355,1080.0,600.0,272,,,elgin superior street 204 po 190 white river p0m3g0,(807) 822-2322,1080.0,600.0,1080.0,600.0,1080.0,600.0
50 Main Street North,P.O. Box 658,Seaforth,(519) 527-2125,1200.0,600.0,True,False,True,False,True,False,True,False,True,273,12346,18306631,17919884,False,43.5547,-81.3921,1080.0,600.0,Main St. N & Hwy 8 W,N0K1W0,720,1080.0,600.0,273,1080.0,660.0,main st n hwy 8 w 50 street north po box 658 seaforth n0k1w0,(519) 527-0970,1080.0,600.0,1080.0,600.0,1080.0,600.0
11 Main Street,P.O. Box 88,Zurich,(519) 236-4901,1140.0,600.0,True,False,True,False,False,False,False,False,True,274,9383,12228088,9226483,False,43.4215,-81.6189,1080.0,600.0,Main & East Street,N0M2T0,637,1080.0,600.0,274,,,main east street 11 po box 88 zurich n0m2t0,(519) 236-4901,1080.0,600.0,,,1080.0,600.0
146 Main Street South,,Exeter,(519) 235-2170,1260.0,600.0,False,False,True,False,True,False,True,False,True,275,20917,29850145,16101073,False,43.3525,-81.4814,1080.0,600.0,Main St and Wellington,N0M1S1,1313,1080.0,600.0,275,1080.0,660.0,main st and wellington 146 street south exeter n0m1s1,(519) 235-1942,1080.0,600.0,1080.0,600.0,1080.0,600.0
598 Mitchell Road South,,Listowel,(519) 291-3442,1260.0,600.0,True,False,True,False,True,True,False,True,True,276,20778,31365245,17839290,False,43.7353,-80.9632,1080.0,600.0,Hwy. 23 & 86,N4W3T1,1482,1200.0,600.0,276,1080.0,660.0,hwy 23 86 598 mitchell road south listowel n4w3t1,(519) 291-2300,1080.0,600.0,1080.0,600.0,1080.0,600.0
8 Main Street South,P.O. Box 389,Forest,(519) 786-3696,1260.0,600.0,False,False,True,False,True,False,False,True,True,277,17525,26829917,14526245,False,43.0965,-82.0009,1080.0,600.0,Victoria & Main Street,N0N1J0,1226,1080.0,600.0,277,1080.0,660.0,victoria main street 8 south po box 389 forest n0n1j0,(519) 786-5051,1080.0,600.0,1080.0,600.0,1080.0,600.0
15 Amy Croft,,Tecumseh,(519) 735-2310,1260.0,600.0,False,True,True,True,True,False,False,True,True,278,54710,93516184,44075119,False,42.3056,-82.8678,1260.0,600.0,E.C. Row & Manning,N9K1C7,3203,1260.0,600.0,278,1080.0,660.0,ec row manning 15 amy croft tecumseh n9k1c7,(519) 735-2661,1260.0,600.0,1260.0,600.0,1260.0,600.0
1339 Lawrence Ave. West,North Park Plaza,North York,(416) 249-5642,1320.0,600.0,True,True,True,True,False,False,True,True,True,279,51530,89760996,42499766,False,43.7085,-79.4763,1260.0,600.0,Keele & Lawrence,M6L1A5,2587,1320.0,600.0,279,1080.0,660.0,keele lawrence 1339 ave west north park plaza toronto toronto-north torontonorth york m6l1a5,(416) 249-1391,1320.0,600.0,1260.0,600.0,1260.0,600.0
55 First Street,P.O. Box 99,Elk Lake,(705) 678-2253,1080.0,600.0,False,True,True,False,True,False,False,False,True,280,2808,5499342,4093976,False,47.7321,-80.3382,,,Monroe Crescent & First Street,P0J1G0,394,1080.0,600.0,280,,,monroe crescent first street 55 po box 99 elk lake p0j1g0,(705) 678-2253,1080.0,600.0,1080.0,600.0,1080.0,600.0
4 King Street,P.O. Box 29,Omemee,(705) 799-0678,1200.0,570.0,True,False,True,False,False,False,False,True,False,281,15871,20364895,15071145,False,44.2987,-78.5594,1080.0,570.0,King & Sturgeon Street,K0L2W0,987,1080.0,570.0,281,1080.0,660.0,king sturgeon street 4 po box 29 omemee k0l2w0,(705) 799-5212,1080.0,570.0,1080.0,570.0,1080.0,570.0
95 Maple Street,P.O. Box 391,Clinton,(519) 482-7127,1260.0,600.0,False,False,True,False,True,False,False,False,False,282,11765,16749484,8717866,False,43.6199,-81.5378,1080.0,600.0,Hwy. 4 & Hwy 8,N0M1L0,785,1080.0,600.0,282,,,hwy 4 8 95 maple street po box 391 clinton n0m1l0,(519) 482-7323,1080.0,600.0,1080.0,600.0,1080.0,600.0
23 Brock Street,P.O. Box 100,Tobermory,(519) 596-2750,1080.0,600.0,True,False,True,False,False,False,False,False,True,283,12100,15860514,12557316,False,45.2551,-81.6623,,,Brock & Bay Street,N0H2R0,824,1080.0,600.0,283,,,brock bay street 23 po box 100 tobermory n0h2r0,(519) 596-2213,1080.0,600.0,1080.0,600.0,1080.0,600.0
115 First Avenue North,P.O. Box 428,Chesley,(519) 363-6413,1200.0,600.0,True,False,True,False,True,False,False,False,True,284,12410,20005088,15706309,False,44.3032,-81.0963,1080.0,600.0,Bruce Road #10 & First Avenue,N0G1L0,986,1080.0,600.0,284,1080.0,660.0,bruce road #10 first avenue 115 north po box 428 chesley n0g1l0,(519) 363-3303,1080.0,600.0,1080.0,600.0,1080.0,600.0
Hwy. 11,P.O. Box 178,Emo,(807) 482-1475,1080.0,600.0,False,False,True,False,False,False,False,True,True,285,7966,11814128,9299400,False,48.6334,-93.8302,,,Hwy 11 & Hwy 71,P0W1E0,582,1080.0,600.0,285,,,hwy 11 71 po box 178 emo p0w1e0,(807) 482-2463,1080.0,600.0,1080.0,600.0,1080.0,600.0
410 Main Street East,,Kingsville,(519) 733-5607,1260.0,600.0,False,False,True,False,True,True,False,False,True,286,26625,39928284,20738923,False,42.0388,-82.7215,1200.0,600.0,Main & Jasperson,N9Y0C1,1617,1260.0,600.0,286,1080.0,660.0,main jasperson 410 street east kingsville n9y0c1,(519) 733-5223,1260.0,600.0,1200.0,600.0,1200.0,600.0
1467 Lasalle Boulevard,Supermall,New Sudbury,(705) 566-0850,1320.0,600.0,True,True,True,True,True,True,True,True,True,287,46113,76221771,38773190,False,46.5211,-80.9425,1320.0,600.0,Lasalle & Barrydowne,P3A1Z8,2487,1320.0,600.0,287,1080.0,660.0,lasalle barrydowne 1467 boulevard supermall sudbury new sudbury-new sudburynew p3a1z8,(705) 566-3882,1320.0,600.0,1320.0,600.0,1320.0,600.0
37 Caplan Avenue,Unit #4,Barrie,(705) 726-1971,1260.0,600.0,True,False,True,True,False,True,True,True,True,288,72355,128932801,58974139,False,44.337,-79.6905,1260.0,600.0,Mapleview & Bryne Drive,L4N6K3,3550,1260.0,600.0,288,1080.0,660.0,mapleview bryne drive 37 caplan avenue unit #4 barrie l4n6k3,(705) 726-6220,1260.0,600.0,1260.0,600.0,1260.0,600.0
115 Parkview Drive,P.O. Box 278,St. Marys,(519) 284-2300,1260.0,600.0,False,False,True,True,True,True,False,False,True,289,15420,21269639,12665603,False,43.261,-81.143,1080.0,600.0,Wellington Street & Parkview D,N4X1B1,966,1080.0,600.0,289,1080.0,660.0,wellington street parkview d 115 drive po box 278 st marys n4x1b1,(519) 284-2300,1080.0,600.0,1080.0,600.0,1080.0,600.0
